{"type":"FeatureCollection","features":[{"type":"Feature","geometry":{"type":"Point","coordinates":[-73.95803,40.76513]},"properties":{"address":"1 Avenue & E 68 Street","latitude":"40.76513","longitude":"-73.95803","name":"Citi Bike - 1st Avenue & East 68th Street","capacity":"47","operator":"Citi Bike"}}]}
{"type":"FeatureCollection","features":[{"type":"Feature","geometry":{"type":"Point","coordinates":[-73.95317,40.70279]},"properties":{"address":"1869439170989701358","latitude":"40.70279","longitude":"-73.95317","name":"Marcy Ave & Lynch St","capacity":"23","operator":"Citi Bike"}}]}
{"type":"FeatureCollection","features":[{"type":"Feature","geometry":{"type":"Point","coordinates":[-73.95429,40.70368]},"properties":{"address":"1908785111291682996","latitude":"40.70368","longitude":"-73.95429","name":"Marcy Ave & Rutledge St","capacity":"19","operator":"Citi Bike"}}]}
{"type":"FeatureCollection","features":[{"type":"Feature","geometry":{"type":"Point","coordinates":[-73.94714,40.7841]},"properties":{"address":"2 Avenue & E 96 Street","latitude":"40.7841","longitude":"-73.94714","name":"Citi Bike 2nd Avenue & East 96th Street","capacity":"30","operator":"Citi Bike"}}]}
{"type":"FeatureCollection","features":[{"type":"Feature","geometry":{"type":"Point","coordinates":[-73.98521,40.738]},"properties":{"address":"6013.12","latitude":"40.738","longitude":"-73.98521","name":"Citi Bike - Gramercy Park North & Gramercy Park East","capacity":"47","operator":"Citi Bike"}}]}
{"type":"FeatureCollection","features":[{"type":"Feature","geometry":{"type":"Point","coordinates":[-73.9815,40.72525]},"properties":{"address":"645e4365-653f-48ce-bc15-5fcc287be56f","latitude":"40.72525","longitude":"-73.9815","name":"E 7 St & Ave B","capacity":"69","operator":"Citi Bike"}}]}
{"type":"FeatureCollection","features":[{"type":"Feature","geometry":{"type":"Point","coordinates":[-73.98369,40.72217]},"properties":{"address":"66db6aae-0aca-11e7-82f6-3863bb44ef7c","latitude":"40.72217","longitude":"-73.98369","name":"Citi Bike - East 2nd Street & Avenue B","capacity":"37","operator":"Citi Bike"}}]}
{"type":"FeatureCollection","features":[{"type":"Feature","geometry":{"type":"Point","coordinates":[-73.98185,40.72454]},"properties":{"address":"66db76a1-0aca-11e7-82f6-3863bb44ef7c","latitude":"40.72454","longitude":"-73.98185","name":"E 6 St & Ave B","capacity":"95","operator":"Citi Bike"}}]}
{"type":"FeatureCollection","features":[{"type":"Feature","geometry":{"type":"Point","coordinates":[-73.98511,40.72082]},"properties":{"address":"66dbf442-0aca-11e7-82f6-3863bb44ef7c","latitude":"40.72082","longitude":"-73.98511","name":"Citi Bike - Suffolk Street & Stanton Street","capacity":"77","operator":"Citi Bike"}}]}
{"type":"FeatureCollection","features":[{"type":"Feature","geometry":{"type":"Point","coordinates":[-73.96847,40.768]},"properties":{"address":"6969.08","latitude":"40.768","longitude":"-73.96847","name":"Citi Bike - East 66th Street & Madison Avenue","capacity":"0","operator":"Citi Bike"}}]}
{"type":"FeatureCollection","features":[{"type":"Feature","geometry":{"type":"Point","coordinates":[-73.96409,40.77669]},"properties":{"address":"7161.08","latitude":"40.77669","longitude":"-73.96409","name":"Citi Bike","capacity":"18","operator":"Citi Bike"}}]}
{"type":"FeatureCollection","features":[{"type":"Feature","geometry":{"type":"Point","coordinates":[-73.96968,40.78468]},"properties":{"address":"7354.02","latitude":"40.78468","longitude":"-73.96968","name":"Citi Bike - Central Park West & West 85th Street","capacity":"31","operator":"Citi Bike"}}]}
{"type":"FeatureCollection","features":[{"type":"Feature","geometry":{"type":"Point","coordinates":[-73.98642,40.7208]},"properties":{"address":"9394fb49-583f-4426-8d2f-a2b0ffb584d2","latitude":"40.7208","longitude":"-73.98642","name":"Citi Bike - Stanton Street & Norfolk Street","capacity":"49","operator":"Citi Bike"}}]}
{"type":"FeatureCollection","features":[{"type":"Feature","geometry":{"type":"Point","coordinates":[-73.9498,40.78119]},"properties":{"address":"E 91 Street & 2 Avenue","latitude":"40.78119","longitude":"-73.9498","name":"Citi Bike East 91st Street & 2nd Avenue","capacity":"39","operator":"Citi Bike"}}]}
{"type":"FeatureCollection","features":[{"type":"Feature","geometry":{"type":"Point","coordinates":[-73.9486,40.78589]},"properties":{"address":"E 97 Street & 3 Avenue","latitude":"40.78589","longitude":"-73.9486","name":"Citi Bike East 97th Street & 3rd Avenue","capacity":"30","operator":"Citi Bike"}}]}
{"type":"FeatureCollection","features":[{"type":"Feature","geometry":{"type":"Point","coordinates":[-73.95443,40.70695]},"properties":{"address":"e58234a3-5b23-427e-948f-c1e4571b2bfa","latitude":"40.70695","longitude":"-73.95443","name":"Division Ave & Hooper St","capacity":"61","operator":"Citi Bike"}}]}
{"type":"FeatureCollection","features":[{"type":"Feature","geometry":{"type":"Point","coordinates":[-73.98264,40.72337]},"properties":{"address":"edc9b877-c311-46b4-a780-59ee7e692324","latitude":"40.72337","longitude":"-73.98264","name":"E 4 St & Ave B","capacity":"37","operator":"Citi Bike"}}]}
{"type":"FeatureCollection","features":[{"type":"Feature","geometry":{"type":"Point","coordinates":[-73.99093,40.66346]},"properties":{"address":"osm_10030444327","latitude":"40.66346","longitude":"-73.99093","name":"Citi Bike","capacity":"25","operator":"Citi Bike"}}]}
{"type":"FeatureCollection","features":[{"type":"Feature","geometry":{"type":"Point","coordinates":[-73.92366,40.81273]},"properties":{"address":"osm_10033557450","latitude":"40.81273","longitude":"-73.92366","name":"Citi Bike - E 143 St / 3rd Ave","capacity":"0","operator":"Citi Bike"}}]}
{"type":"FeatureCollection","features":[{"type":"Feature","geometry":{"type":"Point","coordinates":[-73.92167,40.81088]},"properties":{"address":"osm_10033557456","latitude":"40.81088","longitude":"-73.92167","name":"Citi Bike - Willis Ave / E 141 St","capacity":"0","operator":"Citi Bike"}}]}
{"type":"FeatureCollection","features":[{"type":"Feature","geometry":{"type":"Point","coordinates":[-73.92736,40.81082]},"properties":{"address":"osm_10033563137","latitude":"40.81082","longitude":"-73.92736","name":"Citi Bike - 3rd Ave / E 138 St","capacity":"0","operator":"Citi Bike"}}]}
{"type":"FeatureCollection","features":[{"type":"Feature","geometry":{"type":"Point","coordinates":[-73.98019,40.65951]},"properties":{"address":"osm_10035109842","latitude":"40.65951","longitude":"-73.98019","name":"Citi Bike","capacity":"24","operator":"Citi Bike"}}]}
{"type":"FeatureCollection","features":[{"type":"Feature","geometry":{"type":"Point","coordinates":[-73.97825,40.67884]},"properties":{"address":"osm_10050235394","latitude":"40.67884","longitude":"-73.97825","name":"Citi Bike","capacity":"0","operator":"Citi Bike"}}]}
{"type":"FeatureCollection","features":[{"type":"Feature","geometry":{"type":"Point","coordinates":[-73.90618,40.68278]},"properties":{"address":"osm_10078667221","latitude":"40.68278","longitude":"-73.90618","name":"Citi Bike","capacity":"30","operator":"Citi Bike"}}]}
{"type":"FeatureCollection","features":[{"type":"Feature","geometry":{"type":"Point","coordinates":[-73.89533,40.86437]},"properties":{"address":"osm_10095842118","latitude":"40.86437","longitude":"-73.89533","name":"Citi Bike - Grand Concourse & E 192 St","capacity":"0","operator":"Citi Bike"}}]}
{"type":"FeatureCollection","features":[{"type":"Feature","geometry":{"type":"Point","coordinates":[-73.89957,40.8558]},"properties":{"address":"osm_10098022465","latitude":"40.8558","longitude":"-73.89957","name":"Citi Bike - Ryer Av / E 182 St","capacity":"0","operator":"Citi Bike"}}]}
{"type":"FeatureCollection","features":[{"type":"Feature","geometry":{"type":"Point","coordinates":[-73.9664,40.66874]},"properties":{"address":"osm_10103515062","latitude":"40.66874","longitude":"-73.9664","name":"Citi Bike","capacity":"0","operator":"Citi Bike"}}]}
{"type":"FeatureCollection","features":[{"type":"Feature","geometry":{"type":"Point","coordinates":[-73.90264,40.85675]},"properties":{"address":"osm_10116510708","latitude":"40.85675","longitude":"-73.90264","name":"Citi Bike","capacity":"0","operator":"Citi Bike"}}]}
{"type":"FeatureCollection","features":[{"type":"Feature","geometry":{"type":"Point","coordinates":[-73.91174,40.84306]},"properties":{"address":"osm_10117373646","latitude":"40.84306","longitude":"-73.91174","name":"Citi Bike","capacity":"0","operator":"Citi Bike"}}]}
{"type":"FeatureCollection","features":[{"type":"Feature","geometry":{"type":"Point","coordinates":[-73.91395,40.74292]},"properties":{"address":"osm_10121863134","latitude":"40.74292","longitude":"-73.91395","name":"Citi Bike - 51 St & Queens Bl","capacity":"0","operator":"Citi Bike"}}]}
{"type":"FeatureCollection","features":[{"type":"Feature","geometry":{"type":"Point","coordinates":[-73.9027,40.74098]},"properties":{"address":"osm_10121863135","latitude":"40.74098","longitude":"-73.9027","name":"Citi Bike","capacity":"22","operator":"Citi Bike"}}]}
{"type":"FeatureCollection","features":[{"type":"Feature","geometry":{"type":"Point","coordinates":[-73.90337,40.73884]},"properties":{"address":"osm_10121863136","latitude":"40.73884","longitude":"-73.90337","name":"Citi Bike","capacity":"19","operator":"Citi Bike"}}]}
{"type":"FeatureCollection","features":[{"type":"Feature","geometry":{"type":"Point","coordinates":[-73.9091,40.74192]},"properties":{"address":"osm_10121863137","latitude":"40.74192","longitude":"-73.9091","name":"Citi Bike - Queens Bl / 56 St","capacity":"0","operator":"Citi Bike"}}]}
{"type":"FeatureCollection","features":[{"type":"Feature","geometry":{"type":"Point","coordinates":[-73.96922,40.67318]},"properties":{"address":"osm_10137858260","latitude":"40.67318","longitude":"-73.96922","name":"Citi Bike","capacity":"0","operator":"Citi Bike"}}]}
{"type":"FeatureCollection","features":[{"type":"Feature","geometry":{"type":"Point","coordinates":[-73.9173,40.70978]},"properties":{"address":"osm_10155949455","latitude":"40.70978","longitude":"-73.9173","name":"Citi Bike - Willoughby Ave & Onderdonk Ave","capacity":"0","operator":"Citi Bike"}}]}
{"type":"FeatureCollection","features":[{"type":"Feature","geometry":{"type":"Point","coordinates":[-73.93026,40.73784]},"properties":{"address":"osm_10160109211","latitude":"40.73784","longitude":"-73.93026","name":"Citi Bike - 36th St & Hunters Point Avenue","capacity":"0","operator":"Citi Bike"}}]}
{"type":"FeatureCollection","features":[{"type":"Feature","geometry":{"type":"Point","coordinates":[-73.92893,40.74031]},"properties":{"address":"osm_10160109212","latitude":"40.74031","longitude":"-73.92893","name":"Citi Bike","capacity":"0","operator":"Citi Bike"}}]}
{"type":"FeatureCollection","features":[{"type":"Feature","geometry":{"type":"Point","coordinates":[-73.91802,40.73744]},"properties":{"address":"osm_10160109215","latitude":"40.73744","longitude":"-73.91802","name":"Citi Bike","capacity":"0","operator":"Citi Bike"}}]}
{"type":"FeatureCollection","features":[{"type":"Feature","geometry":{"type":"Point","coordinates":[-73.91707,40.74086]},"properties":{"address":"osm_10160130719","latitude":"40.74086","longitude":"-73.91707","name":"Citi Bike - 47 Av & 48 St","capacity":"0","operator":"Citi Bike"}}]}
{"type":"FeatureCollection","features":[{"type":"Feature","geometry":{"type":"Point","coordinates":[-73.92391,40.73988]},"properties":{"address":"osm_10160130721","latitude":"40.73988","longitude":"-73.92391","name":"Citi Bike - 48 Ave & Greenpoint Ave","capacity":"0","operator":"Citi Bike"}}]}
{"type":"FeatureCollection","features":[{"type":"Feature","geometry":{"type":"Point","coordinates":[-73.93783,40.7345]},"properties":{"address":"osm_10160130724","latitude":"40.7345","longitude":"-73.93783","name":"Citi Bike","capacity":"0","operator":"Citi Bike"}}]}
{"type":"FeatureCollection","features":[{"type":"Feature","geometry":{"type":"Point","coordinates":[-73.92271,40.73797]},"properties":{"address":"osm_10160130725","latitude":"40.73797","longitude":"-73.92271","name":"Citi Bike","capacity":"0","operator":"Citi Bike"}}]}
{"type":"FeatureCollection","features":[{"type":"Feature","geometry":{"type":"Point","coordinates":[-73.93479,40.73568]},"properties":{"address":"osm_10160130726","latitude":"40.73568","longitude":"-73.93479","name":"Citi Bike","capacity":"0","operator":"Citi Bike"}}]}
{"type":"FeatureCollection","features":[{"type":"Feature","geometry":{"type":"Point","coordinates":[-73.91726,40.74487]},"properties":{"address":"osm_10160678892","latitude":"40.74487","longitude":"-73.91726","name":"Citi Bike - 43 Av & 47 St","capacity":"0","operator":"Citi Bike"}}]}
{"type":"FeatureCollection","features":[{"type":"Feature","geometry":{"type":"Point","coordinates":[-73.94174,40.72575]},"properties":{"address":"osm_10164025299","latitude":"40.72575","longitude":"-73.94174","name":"Citi Bike","capacity":"0","operator":"Citi Bike"}}]}
{"type":"FeatureCollection","features":[{"type":"Feature","geometry":{"type":"Point","coordinates":[-73.93858,40.71534]},"properties":{"address":"osm_10166464274","latitude":"40.71534","longitude":"-73.93858","name":"Citi Bike - Sharon St / Olive St","capacity":"0","operator":"Citi Bike"}}]}
{"type":"FeatureCollection","features":[{"type":"Feature","geometry":{"type":"Point","coordinates":[-73.90099,40.86301]},"properties":{"address":"osm_10170163899","latitude":"40.86301","longitude":"-73.90099","name":"Citi Bike","capacity":"0","operator":"Citi Bike"}}]}
{"type":"FeatureCollection","features":[{"type":"Feature","geometry":{"type":"Point","coordinates":[-73.91176,40.69987]},"properties":{"address":"osm_10173821787","latitude":"40.69987","longitude":"-73.91176","name":"Citi Bike - Wyckoff Av / Gates Av","capacity":"0","operator":"Citi Bike"}}]}
{"type":"FeatureCollection","features":[{"type":"Feature","geometry":{"type":"Point","coordinates":[-73.98676,40.74265]},"properties":{"address":"osm_10181690927","latitude":"40.74265","longitude":"-73.98676","name":"Citi Bike - Madison Ave & E 26 St","capacity":"75","operator":"Citi Bike"}}]}
{"type":"FeatureCollection","features":[{"type":"Feature","geometry":{"type":"Point","coordinates":[-73.91325,40.6865]},"properties":{"address":"osm_10200492339","latitude":"40.6865","longitude":"-73.91325","name":"Unnamed Station","capacity":"22","operator":"Citi Bike"}}]}
{"type":"FeatureCollection","features":[{"type":"Feature","geometry":{"type":"Point","coordinates":[-73.92522,40.80566]},"properties":{"address":"osm_10208787728","latitude":"40.80566","longitude":"-73.92522","name":"Citi Bike - Willis Av / Bruckner Bl","capacity":"0","operator":"Citi Bike"}}]}
{"type":"FeatureCollection","features":[{"type":"Feature","geometry":{"type":"Point","coordinates":[-73.91953,40.68159]},"properties":{"address":"osm_10231807281","latitude":"40.68159","longitude":"-73.91953","name":"Citi Bike","capacity":"21","operator":"Citi Bike"}}]}
{"type":"FeatureCollection","features":[{"type":"Feature","geometry":{"type":"Point","coordinates":[-73.91411,40.68159]},"properties":{"address":"osm_10236660230","latitude":"40.68159","longitude":"-73.91411","name":"Citi Bike","capacity":"19","operator":"Citi Bike"}}]}
{"type":"FeatureCollection","features":[{"type":"Feature","geometry":{"type":"Point","coordinates":[-73.91492,40.68493]},"properties":{"address":"osm_10236660233","latitude":"40.68493","longitude":"-73.91492","name":"Citi Bike","capacity":"0","operator":"Citi Bike"}}]}
{"type":"FeatureCollection","features":[{"type":"Feature","geometry":{"type":"Point","coordinates":[-73.92329,40.68708]},"properties":{"address":"osm_10236660234","latitude":"40.68708","longitude":"-73.92329","name":"Citi Bike","capacity":"0","operator":"Citi Bike"}}]}
{"type":"FeatureCollection","features":[{"type":"Feature","geometry":{"type":"Point","coordinates":[-73.9321,40.68457]},"properties":{"address":"osm_10239056035","latitude":"40.68457","longitude":"-73.9321","name":"Citi Bike","capacity":"0","operator":"Citi Bike"}}]}
{"type":"FeatureCollection","features":[{"type":"Feature","geometry":{"type":"Point","coordinates":[-73.92924,40.6849]},"properties":{"address":"osm_10239056036","latitude":"40.6849","longitude":"-73.92924","name":"Citi Bike","capacity":"19","operator":"Citi Bike"}}]}
{"type":"FeatureCollection","features":[{"type":"Feature","geometry":{"type":"Point","coordinates":[-73.92565,40.6814]},"properties":{"address":"osm_10241224619","latitude":"40.6814","longitude":"-73.92565","name":"Citi Bike","capacity":"0","operator":"Citi Bike"}}]}
{"type":"FeatureCollection","features":[{"type":"Feature","geometry":{"type":"Point","coordinates":[-73.92601,40.68377]},"properties":{"address":"osm_10241224622","latitude":"40.68377","longitude":"-73.92601","name":"Citi Bike","capacity":"0","operator":"Citi Bike"}}]}
{"type":"FeatureCollection","features":[{"type":"Feature","geometry":{"type":"Point","coordinates":[-73.92282,40.68501]},"properties":{"address":"osm_10241224624","latitude":"40.68501","longitude":"-73.92282","name":"Citi Bike","capacity":"19","operator":"Citi Bike"}}]}
{"type":"FeatureCollection","features":[{"type":"Feature","geometry":{"type":"Point","coordinates":[-73.9269,40.68816]},"properties":{"address":"osm_10243602523","latitude":"40.68816","longitude":"-73.9269","name":"Citi Bike","capacity":"0","operator":"Citi Bike"}}]}
{"type":"FeatureCollection","features":[{"type":"Feature","geometry":{"type":"Point","coordinates":[-73.92617,40.69204]},"properties":{"address":"osm_10243602524","latitude":"40.69204","longitude":"-73.92617","name":"Citi Bike","capacity":"0","operator":"Citi Bike"}}]}
{"type":"FeatureCollection","features":[{"type":"Feature","geometry":{"type":"Point","coordinates":[-73.92349,40.69053]},"properties":{"address":"osm_10243602525","latitude":"40.69053","longitude":"-73.92349","name":"Citi Bike","capacity":"31","operator":"Citi Bike"}}]}
{"type":"FeatureCollection","features":[{"type":"Feature","geometry":{"type":"Point","coordinates":[-73.93014,40.68712]},"properties":{"address":"osm_10245866281","latitude":"40.68712","longitude":"-73.93014","name":"Citi Bike","capacity":"0","operator":"Citi Bike"}}]}
{"type":"FeatureCollection","features":[{"type":"Feature","geometry":{"type":"Point","coordinates":[-73.93118,40.69389]},"properties":{"address":"osm_10245866285","latitude":"40.69389","longitude":"-73.93118","name":"Citi Bike","capacity":"0","operator":"Citi Bike"}}]}
{"type":"FeatureCollection","features":[{"type":"Feature","geometry":{"type":"Point","coordinates":[-73.90832,40.69305]},"properties":{"address":"osm_10251779415","latitude":"40.69305","longitude":"-73.90832","name":"Citi Bike","capacity":"19","operator":"Citi Bike"}}]}
{"type":"FeatureCollection","features":[{"type":"Feature","geometry":{"type":"Point","coordinates":[-73.91453,40.68996]},"properties":{"address":"osm_10251779418","latitude":"40.68996","longitude":"-73.91453","name":"Citi Bike","capacity":"17","operator":"Citi Bike"}}]}
{"type":"FeatureCollection","features":[{"type":"Feature","geometry":{"type":"Point","coordinates":[-73.92009,40.68452]},"properties":{"address":"osm_10254640214","latitude":"40.68452","longitude":"-73.92009","name":"Citi Bike","capacity":"20","operator":"Citi Bike"}}]}
{"type":"FeatureCollection","features":[{"type":"Feature","geometry":{"type":"Point","coordinates":[-73.93217,40.69554]},"properties":{"address":"osm_10258294670","latitude":"40.69554","longitude":"-73.93217","name":"Citi Bike","capacity":"0","operator":"Citi Bike"}}]}
{"type":"FeatureCollection","features":[{"type":"Feature","geometry":{"type":"Point","coordinates":[-73.92929,40.68273]},"properties":{"address":"osm_10261556100","latitude":"40.68273","longitude":"-73.92929","name":"Citi Bike","capacity":"0","operator":"Citi Bike"}}]}
{"type":"FeatureCollection","features":[{"type":"Feature","geometry":{"type":"Point","coordinates":[-73.91691,40.69123]},"properties":{"address":"osm_10263506137","latitude":"40.69123","longitude":"-73.91691","name":"Citi Bike","capacity":"0","operator":"Citi Bike"}}]}
{"type":"FeatureCollection","features":[{"type":"Feature","geometry":{"type":"Point","coordinates":[-73.98789,40.75238]},"properties":{"address":"osm_10268795584","latitude":"40.75238","longitude":"-73.98789","name":"Citi Bike - West 37th Street & Broadway","capacity":"55","operator":"Citi Bike"}}]}
{"type":"FeatureCollection","features":[{"type":"Feature","geometry":{"type":"Point","coordinates":[-73.92305,40.69931]},"properties":{"address":"osm_10281386153","latitude":"40.69931","longitude":"-73.92305","name":"Citi Bike - Stockholm St / Wilson Av","capacity":"23","operator":"Citi Bike"}}]}
{"type":"FeatureCollection","features":[{"type":"Feature","geometry":{"type":"Point","coordinates":[-73.93098,40.69759]},"properties":{"address":"osm_10281386154","latitude":"40.69759","longitude":"-73.93098","name":"Citi Bike","capacity":"0","operator":"Citi Bike"}}]}
{"type":"FeatureCollection","features":[{"type":"Feature","geometry":{"type":"Point","coordinates":[-73.93649,40.68994]},"properties":{"address":"osm_10281386155","latitude":"40.68994","longitude":"-73.93649","name":"Citi Bike","capacity":"0","operator":"Citi Bike"}}]}
{"type":"FeatureCollection","features":[{"type":"Feature","geometry":{"type":"Point","coordinates":[-73.93576,40.68628]},"properties":{"address":"osm_10281386156","latitude":"40.68628","longitude":"-73.93576","name":"Citi Bike","capacity":"0","operator":"Citi Bike"}}]}
{"type":"FeatureCollection","features":[{"type":"Feature","geometry":{"type":"Point","coordinates":[-74.01052,40.71224]},"properties":{"address":"osm_10285334703","latitude":"40.71224","longitude":"-74.01052","name":"Citi Bike - Vesey St & Church St","capacity":"44","operator":"Citi Bike"}}]}
{"type":"FeatureCollection","features":[{"type":"Feature","geometry":{"type":"Point","coordinates":[-73.92154,40.70562]},"properties":{"address":"osm_10287737720","latitude":"40.70562","longitude":"-73.92154","name":"Citi Bike - Willoughby Av / Wyckoff Av","capacity":"23","operator":"Citi Bike"}}]}
{"type":"FeatureCollection","features":[{"type":"Feature","geometry":{"type":"Point","coordinates":[-73.91114,40.71001]},"properties":{"address":"osm_10287737722","latitude":"40.71001","longitude":"-73.91114","name":"Citi Bike - Stanhope St / Fairview Av","capacity":"17","operator":"Citi Bike"}}]}
{"type":"FeatureCollection","features":[{"type":"Feature","geometry":{"type":"Point","coordinates":[-73.91989,40.7049]},"properties":{"address":"osm_10287737724","latitude":"40.7049","longitude":"-73.91989","name":"Citi Bike - Hart St / Wychoff Av","capacity":"0","operator":"Citi Bike"}}]}
{"type":"FeatureCollection","features":[{"type":"Feature","geometry":{"type":"Point","coordinates":[-73.91423,40.70113]},"properties":{"address":"osm_10287737754","latitude":"40.70113","longitude":"-73.91423","name":"Citi Bike - Menahan St / Wychoff Av","capacity":"0","operator":"Citi Bike"}}]}
{"type":"FeatureCollection","features":[{"type":"Feature","geometry":{"type":"Point","coordinates":[-73.98865,40.67064]},"properties":{"address":"osm_10291743710","latitude":"40.67064","longitude":"-73.98865","name":"Citi Bike","capacity":"0","operator":"Citi Bike"}}]}
{"type":"FeatureCollection","features":[{"type":"Feature","geometry":{"type":"Point","coordinates":[-73.99053,40.66866]},"properties":{"address":"osm_10291747099","latitude":"40.66866","longitude":"-73.99053","name":"Citi Bike","capacity":"0","operator":"Citi Bike"}}]}
{"type":"FeatureCollection","features":[{"type":"Feature","geometry":{"type":"Point","coordinates":[-74.01086,40.70191]},"properties":{"address":"osm_10291808114","latitude":"40.70191","longitude":"-74.01086","name":"Citi Bike - South St & Broad St","capacity":"28","operator":"Citi Bike"}}]}
{"type":"FeatureCollection","features":[{"type":"Feature","geometry":{"type":"Point","coordinates":[-74.0133,40.70363]},"properties":{"address":"osm_10291808115","latitude":"40.70363","longitude":"-74.0133","name":"Citi Bike - Whitehall St & Bridge St","capacity":"42","operator":"Citi Bike"}}]}
{"type":"FeatureCollection","features":[{"type":"Feature","geometry":{"type":"Point","coordinates":[-74.00793,40.70472]},"properties":{"address":"osm_10291808116","latitude":"40.70472","longitude":"-74.00793","name":"Citi Bike - Water St. & Gouverner Ln","capacity":"37","operator":"Citi Bike"}}]}
{"type":"FeatureCollection","features":[{"type":"Feature","geometry":{"type":"Point","coordinates":[-74.01312,40.70599]},"properties":{"address":"osm_10291808117","latitude":"40.70599","longitude":"-74.01312","name":"Citi Bike - Broadway & Morris St","capacity":"41","operator":"Citi Bike"}}]}
{"type":"FeatureCollection","features":[{"type":"Feature","geometry":{"type":"Point","coordinates":[-74.01345,40.7082]},"properties":{"address":"osm_10291808127","latitude":"40.7082","longitude":"-74.01345","name":"Citi Bike - Greenwich St & Rector St","capacity":"41","operator":"Citi Bike"}}]}
{"type":"FeatureCollection","features":[{"type":"Feature","geometry":{"type":"Point","coordinates":[-74.01329,40.70928]},"properties":{"address":"osm_10291808128","latitude":"40.70928","longitude":"-74.01329","name":"Citi Bike - Albany Street & Greenwich Street","capacity":"46","operator":"Citi Bike"}}]}
{"type":"FeatureCollection","features":[{"type":"Feature","geometry":{"type":"Point","coordinates":[-74.01484,40.71146]},"properties":{"address":"osm_10291808129","latitude":"40.71146","longitude":"-74.01484","name":"Citi Bike - West St & Liberty St","capacity":"30","operator":"Citi Bike"}}]}
{"type":"FeatureCollection","features":[{"type":"Feature","geometry":{"type":"Point","coordinates":[-74.00894,40.7071]},"properties":{"address":"osm_10291808130","latitude":"40.7071","longitude":"-74.00894","name":"Citi Bike - William St & Pine St","capacity":"41","operator":"Citi Bike"}}]}
{"type":"FeatureCollection","features":[{"type":"Feature","geometry":{"type":"Point","coordinates":[-74.00551,40.70642]},"properties":{"address":"osm_10291808131","latitude":"40.70642","longitude":"-74.00551","name":"Citi Bike - Water St & Fletcher St","capacity":"49","operator":"Citi Bike"}}]}
{"type":"FeatureCollection","features":[{"type":"Feature","geometry":{"type":"Point","coordinates":[-74.00436,40.71033]},"properties":{"address":"osm_10291808132","latitude":"40.71033","longitude":"-74.00436","name":"Citi Bike - Spruce St & Gold St","capacity":"52","operator":"Citi Bike"}}]}
{"type":"FeatureCollection","features":[{"type":"Feature","geometry":{"type":"Point","coordinates":[-74.00942,40.71338]},"properties":{"address":"osm_10291808133","latitude":"40.71338","longitude":"-74.00942","name":"Citi Bike - Park Place & Church Street","capacity":"49","operator":"Citi Bike"}}]}
{"type":"FeatureCollection","features":[{"type":"Feature","geometry":{"type":"Point","coordinates":[-74.01114,40.71478]},"properties":{"address":"osm_10291808134","latitude":"40.71478","longitude":"-74.01114","name":"Citi Bike - Murray Street & Greenwich Street","capacity":"30","operator":"Citi Bike"}}]}
{"type":"FeatureCollection","features":[{"type":"Feature","geometry":{"type":"Point","coordinates":[-74.01627,40.71521]},"properties":{"address":"osm_10291808135","latitude":"40.71521","longitude":"-74.01627","name":"Citi Bike - Vesey Pl & River Terrace","capacity":"34","operator":"Citi Bike"}}]}
{"type":"FeatureCollection","features":[{"type":"Feature","geometry":{"type":"Point","coordinates":[-74.01595,40.71758]},"properties":{"address":"osm_10291808136","latitude":"40.71758","longitude":"-74.01595","name":"Citi Bike - River Terrace & Warren Street","capacity":"43","operator":"Citi Bike"}}]}
{"type":"FeatureCollection","features":[{"type":"Feature","geometry":{"type":"Point","coordinates":[-73.96606,40.68324]},"properties":{"address":"osm_10292441626","latitude":"40.68324","longitude":"-73.96606","name":"Citi Bike","capacity":"0","operator":"Citi Bike"}}]}
{"type":"FeatureCollection","features":[{"type":"Feature","geometry":{"type":"Point","coordinates":[-73.94397,40.68241]},"properties":{"address":"osm_10582024332","latitude":"40.68241","longitude":"-73.94397","name":"Citi Bike","capacity":"0","operator":"Citi Bike"}}]}
{"type":"FeatureCollection","features":[{"type":"Feature","geometry":{"type":"Point","coordinates":[-73.9115,40.68019]},"properties":{"address":"osm_10596860082","latitude":"40.68019","longitude":"-73.9115","name":"Citi Bike","capacity":"20","operator":"Citi Bike"}}]}
{"type":"FeatureCollection","features":[{"type":"Feature","geometry":{"type":"Point","coordinates":[-73.97626,40.66505]},"properties":{"address":"osm_10598568941","latitude":"40.66505","longitude":"-73.97626","name":"Citi Bike - Prospect Park West & 8 St","capacity":"25","operator":"Citi Bike"}}]}
{"type":"FeatureCollection","features":[{"type":"Feature","geometry":{"type":"Point","coordinates":[-73.98544,40.66635]},"properties":{"address":"osm_10598591130","latitude":"40.66635","longitude":"-73.98544","name":"Citi Bike - 6 Ave & 12 St","capacity":"29","operator":"Citi Bike"}}]}
{"type":"FeatureCollection","features":[{"type":"Feature","geometry":{"type":"Point","coordinates":[-73.98898,40.66631]},"properties":{"address":"osm_10598617278","latitude":"40.66631","longitude":"-73.98898","name":"Citi Bike - 14th St & 5th Ave","capacity":"0","operator":"Citi Bike"}}]}
{"type":"FeatureCollection","features":[{"type":"Feature","geometry":{"type":"Point","coordinates":[-73.97182,40.67905]},"properties":{"address":"osm_10666091530","latitude":"40.67905","longitude":"-73.97182","name":"Citi Bike","capacity":"0","operator":"Citi Bike"}}]}
{"type":"FeatureCollection","features":[{"type":"Feature","geometry":{"type":"Point","coordinates":[-73.971,40.68108]},"properties":{"address":"osm_10666091531","latitude":"40.68108","longitude":"-73.971","name":"Citi Bike","capacity":"0","operator":"Citi Bike"}}]}
{"type":"FeatureCollection","features":[{"type":"Feature","geometry":{"type":"Point","coordinates":[-73.96936,40.6842]},"properties":{"address":"osm_10666091533","latitude":"40.6842","longitude":"-73.96936","name":"Citi Bike","capacity":"0","operator":"Citi Bike"}}]}
{"type":"FeatureCollection","features":[{"type":"Feature","geometry":{"type":"Point","coordinates":[-73.9792,40.75768]},"properties":{"address":"osm_10693951252","latitude":"40.75768","longitude":"-73.9792","name":"Citi Bike - E 48th St / Rockefeller Plaza","capacity":"10","operator":"Citi Bike"}}]}
{"type":"FeatureCollection","features":[{"type":"Feature","geometry":{"type":"Point","coordinates":[-74.00058,40.72629]},"properties":{"address":"osm_10695291117","latitude":"40.72629","longitude":"-74.00058","name":"Citi Bike","capacity":"0","operator":"Citi Bike"}}]}
{"type":"FeatureCollection","features":[{"type":"Feature","geometry":{"type":"Point","coordinates":[-73.99015,40.73255]},"properties":{"address":"osm_10695500732","latitude":"40.73255","longitude":"-73.99015","name":"Citi Bike","capacity":"0","operator":"Citi Bike"}}]}
{"type":"FeatureCollection","features":[{"type":"Feature","geometry":{"type":"Point","coordinates":[-74.00346,40.68304]},"properties":{"address":"osm_10725944561","latitude":"40.68304","longitude":"-74.00346","name":"Citi Bike","capacity":"0","operator":"Citi Bike"}}]}
{"type":"FeatureCollection","features":[{"type":"Feature","geometry":{"type":"Point","coordinates":[-73.9992,40.68467]},"properties":{"address":"osm_10728667721","latitude":"40.68467","longitude":"-73.9992","name":"Citi Bike - Henry Street & DeGraw Street","capacity":"0","operator":"Citi Bike"}}]}
{"type":"FeatureCollection","features":[{"type":"Feature","geometry":{"type":"Point","coordinates":[-74.00245,40.68597]},"properties":{"address":"osm_10731774868","latitude":"40.68597","longitude":"-74.00245","name":"Citi Bike","capacity":"20","operator":"Citi Bike"}}]}
{"type":"FeatureCollection","features":[{"type":"Feature","geometry":{"type":"Point","coordinates":[-73.99551,40.68826]},"properties":{"address":"osm_10736959889","latitude":"40.68826","longitude":"-73.99551","name":"Citi Bike - Congress St / Clinton St","capacity":"0","operator":"Citi Bike"}}]}
{"type":"FeatureCollection","features":[{"type":"Feature","geometry":{"type":"Point","coordinates":[-73.99152,40.7194]},"properties":{"address":"osm_10754684939","latitude":"40.7194","longitude":"-73.99152","name":"Citi Bike","capacity":"0","operator":"Citi Bike"}}]}
{"type":"FeatureCollection","features":[{"type":"Feature","geometry":{"type":"Point","coordinates":[-73.93167,40.74433]},"properties":{"address":"osm_10761870663","latitude":"40.74433","longitude":"-73.93167","name":"Citi Bike","capacity":"0","operator":"Citi Bike"}}]}
{"type":"FeatureCollection","features":[{"type":"Feature","geometry":{"type":"Point","coordinates":[-73.99958,40.68938]},"properties":{"address":"osm_10762234414","latitude":"40.68938","longitude":"-73.99958","name":"Citi Bike","capacity":"0","operator":"Citi Bike"}}]}
{"type":"FeatureCollection","features":[{"type":"Feature","geometry":{"type":"Point","coordinates":[-73.90857,40.67381]},"properties":{"address":"osm_10764697736","latitude":"40.67381","longitude":"-73.90857","name":"Citi Bike","capacity":"0","operator":"Citi Bike"}}]}
{"type":"FeatureCollection","features":[{"type":"Feature","geometry":{"type":"Point","coordinates":[-73.91367,40.67858]},"properties":{"address":"osm_10764905903","latitude":"40.67858","longitude":"-73.91367","name":"Citi Bike","capacity":"0","operator":"Citi Bike"}}]}
{"type":"FeatureCollection","features":[{"type":"Feature","geometry":{"type":"Point","coordinates":[-73.97516,40.7251]},"properties":{"address":"osm_10778642787","latitude":"40.7251","longitude":"-73.97516","name":"Citi Bike - Ave D & E 10 St","capacity":"0","operator":"Citi Bike"}}]}
{"type":"FeatureCollection","features":[{"type":"Feature","geometry":{"type":"Point","coordinates":[-73.97861,40.7197]},"properties":{"address":"osm_10778692317","latitude":"40.7197","longitude":"-73.97861","name":"Citi Bike","capacity":"0","operator":"Citi Bike"}}]}
{"type":"FeatureCollection","features":[{"type":"Feature","geometry":{"type":"Point","coordinates":[-73.89987,40.72345]},"properties":{"address":"osm_10780335497","latitude":"40.72345","longitude":"-73.89987","name":"Citi Bike - Grand Ave & Remsen","capacity":"21","operator":"Citi Bike"}}]}
{"type":"FeatureCollection","features":[{"type":"Feature","geometry":{"type":"Point","coordinates":[-73.90115,40.72897]},"properties":{"address":"osm_10780361522","latitude":"40.72897","longitude":"-73.90115","name":"Citi Bike - 64 Street & 53 Drive","capacity":"19","operator":"Citi Bike"}}]}
{"type":"FeatureCollection","features":[{"type":"Feature","geometry":{"type":"Point","coordinates":[-73.90294,40.72146]},"properties":{"address":"osm_10780363838","latitude":"40.72146","longitude":"-73.90294","name":"Citi Bike - Fresh Pond Road & Flushing Avenue","capacity":"19","operator":"Citi Bike"}}]}
{"type":"FeatureCollection","features":[{"type":"Feature","geometry":{"type":"Point","coordinates":[-73.90072,40.73707]},"properties":{"address":"osm_10805868114","latitude":"40.73707","longitude":"-73.90072","name":"Citi Bike","capacity":"19","operator":"Citi Bike"}}]}
{"type":"FeatureCollection","features":[{"type":"Feature","geometry":{"type":"Point","coordinates":[-73.90129,40.73396]},"properties":{"address":"osm_10805868115","latitude":"40.73396","longitude":"-73.90129","name":"Citi Bike","capacity":"19","operator":"Citi Bike"}}]}
{"type":"FeatureCollection","features":[{"type":"Feature","geometry":{"type":"Point","coordinates":[-73.9085,40.72403]},"properties":{"address":"osm_10805868162","latitude":"40.72403","longitude":"-73.9085","name":"Citi Bike","capacity":"19","operator":"Citi Bike"}}]}
{"type":"FeatureCollection","features":[{"type":"Feature","geometry":{"type":"Point","coordinates":[-73.90858,40.72249]},"properties":{"address":"osm_10805868164","latitude":"40.72249","longitude":"-73.90858","name":"Citi Bike","capacity":"19","operator":"Citi Bike"}}]}
{"type":"FeatureCollection","features":[{"type":"Feature","geometry":{"type":"Point","coordinates":[-73.90708,40.72096]},"properties":{"address":"osm_10805868165","latitude":"40.72096","longitude":"-73.90708","name":"Citi Bike","capacity":"20","operator":"Citi Bike"}}]}
{"type":"FeatureCollection","features":[{"type":"Feature","geometry":{"type":"Point","coordinates":[-73.90921,40.72615]},"properties":{"address":"osm_10805868169","latitude":"40.72615","longitude":"-73.90921","name":"Citi Bike","capacity":"19","operator":"Citi Bike"}}]}
{"type":"FeatureCollection","features":[{"type":"Feature","geometry":{"type":"Point","coordinates":[-73.90512,40.68909]},"properties":{"address":"osm_10816878543","latitude":"40.68909","longitude":"-73.90512","name":"Citi Bike","capacity":"32","operator":"Citi Bike"}}]}
{"type":"FeatureCollection","features":[{"type":"Feature","geometry":{"type":"Point","coordinates":[-73.9038,40.69046]},"properties":{"address":"osm_10816878544","latitude":"40.69046","longitude":"-73.9038","name":"Citi Bike","capacity":"12","operator":"Citi Bike"}}]}
{"type":"FeatureCollection","features":[{"type":"Feature","geometry":{"type":"Point","coordinates":[-73.90692,40.74835]},"properties":{"address":"osm_10875951678","latitude":"40.74835","longitude":"-73.90692","name":"39th Avenue & 56 Street","capacity":"20","operator":"Citi Bike"}}]}
{"type":"FeatureCollection","features":[{"type":"Feature","geometry":{"type":"Point","coordinates":[-73.90899,40.7489]},"properties":{"address":"osm_10875954122","latitude":"40.7489","longitude":"-73.90899","name":"39th Avenue & 54 Street","capacity":"20","operator":"Citi Bike"}}]}
{"type":"FeatureCollection","features":[{"type":"Feature","geometry":{"type":"Point","coordinates":[-73.98259,40.67715]},"properties":{"address":"osm_10876237825","latitude":"40.67715","longitude":"-73.98259","name":"Citi Bike","capacity":"0","operator":"Citi Bike"}}]}
{"type":"FeatureCollection","features":[{"type":"Feature","geometry":{"type":"Point","coordinates":[-73.89741,40.74941]},"properties":{"address":"osm_10899617308","latitude":"40.74941","longitude":"-73.89741","name":"Citi Bike","capacity":"0","operator":"Citi Bike"}}]}
{"type":"FeatureCollection","features":[{"type":"Feature","geometry":{"type":"Point","coordinates":[-73.98654,40.67698]},"properties":{"address":"osm_10915202769","latitude":"40.67698","longitude":"-73.98654","name":"Citi Bike - 3rd Ave / Carroll St","capacity":"0","operator":"Citi Bike"}}]}
{"type":"FeatureCollection","features":[{"type":"Feature","geometry":{"type":"Point","coordinates":[-73.91782,40.70356]},"properties":{"address":"osm_10920066376","latitude":"40.70356","longitude":"-73.91782","name":"Citi Bike - Wyckoff Av / Stanhope St","capacity":"0","operator":"Citi Bike"}}]}
{"type":"FeatureCollection","features":[{"type":"Feature","geometry":{"type":"Point","coordinates":[-73.915,40.70864]},"properties":{"address":"osm_10922968625","latitude":"40.70864","longitude":"-73.915","name":"Citi Bike","capacity":"0","operator":"Citi Bike"}}]}
{"type":"FeatureCollection","features":[{"type":"Feature","geometry":{"type":"Point","coordinates":[-73.90304,40.71389]},"properties":{"address":"osm_10922968626","latitude":"40.71389","longitude":"-73.90304","name":"Citi Bike - Eliot Av / 60th Ln","capacity":"22","operator":"Citi Bike"}}]}
{"type":"FeatureCollection","features":[{"type":"Feature","geometry":{"type":"Point","coordinates":[-73.90303,40.71113]},"properties":{"address":"osm_10922968628","latitude":"40.71113","longitude":"-73.90303","name":"Citi Bike","capacity":"0","operator":"Citi Bike"}}]}
{"type":"FeatureCollection","features":[{"type":"Feature","geometry":{"type":"Point","coordinates":[-73.91295,40.70575]},"properties":{"address":"osm_10929010688","latitude":"40.70575","longitude":"-73.91295","name":"Citi Bike","capacity":"19","operator":"Citi Bike"}}]}
{"type":"FeatureCollection","features":[{"type":"Feature","geometry":{"type":"Point","coordinates":[-73.90102,40.71446]},"properties":{"address":"osm_10929581864","latitude":"40.71446","longitude":"-73.90102","name":"Citi Bike - Fresh Pond Rd / Eliot Av","capacity":"0","operator":"Citi Bike"}}]}
{"type":"FeatureCollection","features":[{"type":"Feature","geometry":{"type":"Point","coordinates":[-73.90787,40.70971]},"properties":{"address":"osm_10948095326","latitude":"40.70971","longitude":"-73.90787","name":"Citi Bike - Greene Av / Grandview Av","capacity":"0","operator":"Citi Bike"}}]}
{"type":"FeatureCollection","features":[{"type":"Feature","geometry":{"type":"Point","coordinates":[-73.90799,40.74327]},"properties":{"address":"osm_10951886471","latitude":"40.74327","longitude":"-73.90799","name":"Citi Bike - 57th St / 43rd Av","capacity":"0","operator":"Citi Bike"}}]}
{"type":"FeatureCollection","features":[{"type":"Feature","geometry":{"type":"Point","coordinates":[-73.92192,40.7454]},"properties":{"address":"osm_10956028574","latitude":"40.7454","longitude":"-73.92192","name":"Citi Bike","capacity":"0","operator":"Citi Bike"}}]}
{"type":"FeatureCollection","features":[{"type":"Feature","geometry":{"type":"Point","coordinates":[-73.93217,40.74655]},"properties":{"address":"osm_10956028592","latitude":"40.74655","longitude":"-73.93217","name":"Citi Bike - Skillman Av / 32nd Pl","capacity":"0","operator":"Citi Bike"}}]}
{"type":"FeatureCollection","features":[{"type":"Feature","geometry":{"type":"Point","coordinates":[-73.92407,40.74564]},"properties":{"address":"osm_10956028600","latitude":"40.74564","longitude":"-73.92407","name":"Citi Bike - 43rd Av / 40th St","capacity":"0","operator":"Citi Bike"}}]}
{"type":"FeatureCollection","features":[{"type":"Feature","geometry":{"type":"Point","coordinates":[-74.01717,40.67821]},"properties":{"address":"osm_10969177991","latitude":"40.67821","longitude":"-74.01717","name":"Citi Bike","capacity":"24","operator":"Citi Bike"}}]}
{"type":"FeatureCollection","features":[{"type":"Feature","geometry":{"type":"Point","coordinates":[-74.01576,40.6773]},"properties":{"address":"osm_10969189371","latitude":"40.6773","longitude":"-74.01576","name":"Citi Bike","capacity":"0","operator":"Citi Bike"}}]}
{"type":"FeatureCollection","features":[{"type":"Feature","geometry":{"type":"Point","coordinates":[-73.9166,40.67856]},"properties":{"address":"osm_10991688431","latitude":"40.67856","longitude":"-73.9166","name":"Citi Bike","capacity":"0","operator":"Citi Bike"}}]}
{"type":"FeatureCollection","features":[{"type":"Feature","geometry":{"type":"Point","coordinates":[-73.9096,40.70554]},"properties":{"address":"osm_11003411918","latitude":"40.70554","longitude":"-73.9096","name":"Citi Bike","capacity":"0","operator":"Citi Bike"}}]}
{"type":"FeatureCollection","features":[{"type":"Feature","geometry":{"type":"Point","coordinates":[-73.91052,40.70464]},"properties":{"address":"osm_11003411920","latitude":"40.70464","longitude":"-73.91052","name":"Citi Bike","capacity":"0","operator":"Citi Bike"}}]}
{"type":"FeatureCollection","features":[{"type":"Feature","geometry":{"type":"Point","coordinates":[-73.96773,40.64972]},"properties":{"address":"osm_11006036393","latitude":"40.64972","longitude":"-73.96773","name":"Citi Bike","capacity":"0","operator":"Citi Bike"}}]}
{"type":"FeatureCollection","features":[{"type":"Feature","geometry":{"type":"Point","coordinates":[-73.88698,40.8822]},"properties":{"address":"osm_11018111378","latitude":"40.8822","longitude":"-73.88698","name":"Citi Bike - W Mosholu Pkwy & Sedgwick Av","capacity":"0","operator":"Citi Bike"}}]}
{"type":"FeatureCollection","features":[{"type":"Feature","geometry":{"type":"Point","coordinates":[-73.8862,40.88027]},"properties":{"address":"osm_11018111384","latitude":"40.88027","longitude":"-73.8862","name":"Citi Bike - Paul Av & W Mosholu Pkwy S","capacity":"0","operator":"Citi Bike"}}]}
{"type":"FeatureCollection","features":[{"type":"Feature","geometry":{"type":"Point","coordinates":[-73.91221,40.78047]},"properties":{"address":"osm_11028866520","latitude":"40.78047","longitude":"-73.91221","name":"Citibike - 21 Av / Crescent St","capacity":"24","operator":"Citi Bike"}}]}
{"type":"FeatureCollection","features":[{"type":"Feature","geometry":{"type":"Point","coordinates":[-73.99162,40.70996]},"properties":{"address":"osm_11033263708","latitude":"40.70996","longitude":"-73.99162","name":"Citi Bike - South Street & Pike Street","capacity":"35","operator":"Citi Bike"}}]}
{"type":"FeatureCollection","features":[{"type":"Feature","geometry":{"type":"Point","coordinates":[-74.00717,40.74268]},"properties":{"address":"osm_11048744582","latitude":"40.74268","longitude":"-74.00717","name":"Citi Bike","capacity":"0","operator":"Citi Bike"}}]}
{"type":"FeatureCollection","features":[{"type":"Feature","geometry":{"type":"Point","coordinates":[-73.92531,40.6936]},"properties":{"address":"osm_11073986122","latitude":"40.6936","longitude":"-73.92531","name":"Citi Bike","capacity":"0","operator":"Citi Bike"}}]}
{"type":"FeatureCollection","features":[{"type":"Feature","geometry":{"type":"Point","coordinates":[-74.00937,40.71707]},"properties":{"address":"osm_11079180153","latitude":"40.71707","longitude":"-74.00937","name":"Citi Bike - Duane Street & Hudson Street","capacity":"41","operator":"Citi Bike"}}]}
{"type":"FeatureCollection","features":[{"type":"Feature","geometry":{"type":"Point","coordinates":[-73.92824,40.69501]},"properties":{"address":"osm_11098616738","latitude":"40.69501","longitude":"-73.92824","name":"Citi Bike","capacity":"29","operator":"Citi Bike"}}]}
{"type":"FeatureCollection","features":[{"type":"Feature","geometry":{"type":"Point","coordinates":[-74.00073,40.75517]},"properties":{"address":"osm_11141800823","latitude":"40.75517","longitude":"-74.00073","name":"Citi Bike - W 34 St & Hudson Blvd E","capacity":"51","operator":"Citi Bike"}}]}
{"type":"FeatureCollection","features":[{"type":"Feature","geometry":{"type":"Point","coordinates":[-73.94304,40.72777]},"properties":{"address":"osm_11163164201","latitude":"40.72777","longitude":"-73.94304","name":"Citi Bike - Monitor St & Norman Av","capacity":"0","operator":"Citi Bike"}}]}
{"type":"FeatureCollection","features":[{"type":"Feature","geometry":{"type":"Point","coordinates":[-73.95966,40.7432]},"properties":{"address":"osm_11179731218","latitude":"40.7432","longitude":"-73.95966","name":"Citi Bike - Center Bl / 51 Av","capacity":"0","operator":"Citi Bike"}}]}
{"type":"FeatureCollection","features":[{"type":"Feature","geometry":{"type":"Point","coordinates":[-73.95586,40.74439]},"properties":{"address":"osm_11179731220","latitude":"40.74439","longitude":"-73.95586","name":"Citi Bike - 48 Av / 5 St","capacity":"0","operator":"Citi Bike"}}]}
{"type":"FeatureCollection","features":[{"type":"Feature","geometry":{"type":"Point","coordinates":[-73.90655,40.77676]},"properties":{"address":"osm_11186171542","latitude":"40.77676","longitude":"-73.90655","name":"Citi Bike - 35 St / 21 Av","capacity":"0","operator":"Citi Bike"}}]}
{"type":"FeatureCollection","features":[{"type":"Feature","geometry":{"type":"Point","coordinates":[-73.8832,40.7464]},"properties":{"address":"osm_11196834448","latitude":"40.7464","longitude":"-73.8832","name":"Citi Bike - Ithaca Street & Baxter Avenue","capacity":"0","operator":"Citi Bike"}}]}
{"type":"FeatureCollection","features":[{"type":"Feature","geometry":{"type":"Point","coordinates":[-73.89121,40.74653]},"properties":{"address":"osm_11197062386","latitude":"40.74653","longitude":"-73.89121","name":"Citi Bike - Broadway & 74 St","capacity":"0","operator":"Citi Bike"}}]}
{"type":"FeatureCollection","features":[{"type":"Feature","geometry":{"type":"Point","coordinates":[-73.91278,40.77419]},"properties":{"address":"osm_11256194464","latitude":"40.77419","longitude":"-73.91278","name":"Citi Bike - 23rd Avenue & 31st Street","capacity":"0","operator":"Citi Bike"}}]}
{"type":"FeatureCollection","features":[{"type":"Feature","geometry":{"type":"Point","coordinates":[-73.91378,40.7734]},"properties":{"address":"osm_11256194465","latitude":"40.7734","longitude":"-73.91378","name":"Citi Bike - 23rd Road & 31st Street","capacity":"0","operator":"Citi Bike"}}]}
{"type":"FeatureCollection","features":[{"type":"Feature","geometry":{"type":"Point","coordinates":[-73.9484,40.72983]},"properties":{"address":"osm_11294399144","latitude":"40.72983","longitude":"-73.9484","name":"Citi Bike - Calyer Street & Jewel Street","capacity":"36","operator":"Citi Bike"}}]}
{"type":"FeatureCollection","features":[{"type":"Feature","geometry":{"type":"Point","coordinates":[-73.94793,40.74735]},"properties":{"address":"osm_11360785885","latitude":"40.74735","longitude":"-73.94793","name":"Citi Bike - 45 Rd & 11 St","capacity":"23","operator":"Citi Bike"}}]}
{"type":"FeatureCollection","features":[{"type":"Feature","geometry":{"type":"Point","coordinates":[-73.97126,40.80121]},"properties":{"address":"osm_11377124681","latitude":"40.80121","longitude":"-73.97126","name":"Citi Bike","capacity":"0","operator":"Citi Bike"}}]}
{"type":"FeatureCollection","features":[{"type":"Feature","geometry":{"type":"Point","coordinates":[-73.9742,40.75732]},"properties":{"address":"osm_11380320189","latitude":"40.75732","longitude":"-73.9742","name":"Citi Bike - E 50th St / Park Ave","capacity":"37","operator":"Citi Bike"}}]}
{"type":"FeatureCollection","features":[{"type":"Feature","geometry":{"type":"Point","coordinates":[-73.93077,40.78293]},"properties":{"address":"osm_11423368103","latitude":"40.78293","longitude":"-73.93077","name":"Citibike","capacity":"18","operator":"Citi Bike"}}]}
{"type":"FeatureCollection","features":[{"type":"Feature","geometry":{"type":"Point","coordinates":[-73.86087,40.75615]},"properties":{"address":"osm_11434873460","latitude":"40.75615","longitude":"-73.86087","name":"Citi Bike - 34 Av / 108 St","capacity":"0","operator":"Citi Bike"}}]}
{"type":"FeatureCollection","features":[{"type":"Feature","geometry":{"type":"Point","coordinates":[-73.97081,40.67298]},"properties":{"address":"osm_11435569692","latitude":"40.67298","longitude":"-73.97081","name":"Citi Bike","capacity":"36","operator":"Citi Bike"}}]}
{"type":"FeatureCollection","features":[{"type":"Feature","geometry":{"type":"Point","coordinates":[-73.96721,40.67388]},"properties":{"address":"osm_11438878039","latitude":"40.67388","longitude":"-73.96721","name":"Citi Bike","capacity":"25","operator":"Citi Bike"}}]}
{"type":"FeatureCollection","features":[{"type":"Feature","geometry":{"type":"Point","coordinates":[-73.97522,40.67514]},"properties":{"address":"osm_11438902801","latitude":"40.67514","longitude":"-73.97522","name":"Citi Bike","capacity":"24","operator":"Citi Bike"}}]}
{"type":"FeatureCollection","features":[{"type":"Feature","geometry":{"type":"Point","coordinates":[-73.98166,40.67524]},"properties":{"address":"osm_11438909332","latitude":"40.67524","longitude":"-73.98166","name":"Citi Bike","capacity":"24","operator":"Citi Bike"}}]}
{"type":"FeatureCollection","features":[{"type":"Feature","geometry":{"type":"Point","coordinates":[-73.97846,40.67654]},"properties":{"address":"osm_11438929276","latitude":"40.67654","longitude":"-73.97846","name":"Citi Bike","capacity":"36","operator":"Citi Bike"}}]}
{"type":"FeatureCollection","features":[{"type":"Feature","geometry":{"type":"Point","coordinates":[-73.9769,40.64896]},"properties":{"address":"osm_11470064700","latitude":"40.64896","longitude":"-73.9769","name":"Citi Bike","capacity":"0","operator":"Citi Bike"}}]}
{"type":"FeatureCollection","features":[{"type":"Feature","geometry":{"type":"Point","coordinates":[-73.97942,40.64798]},"properties":{"address":"osm_11470090629","latitude":"40.64798","longitude":"-73.97942","name":"Citi Bike","capacity":"0","operator":"Citi Bike"}}]}
{"type":"FeatureCollection","features":[{"type":"Feature","geometry":{"type":"Point","coordinates":[-73.87111,40.73285]},"properties":{"address":"osm_11554846252","latitude":"40.73285","longitude":"-73.87111","name":"Citi Bike - Woodhaven Blvd & Queens Blvd","capacity":"0","operator":"Citi Bike"}}]}
{"type":"FeatureCollection","features":[{"type":"Feature","geometry":{"type":"Point","coordinates":[-73.88553,40.73858]},"properties":{"address":"osm_11554846255","latitude":"40.73858","longitude":"-73.88553","name":"Citi Bike - Queens Blvd & Albion Av","capacity":"0","operator":"Citi Bike"}}]}
{"type":"FeatureCollection","features":[{"type":"Feature","geometry":{"type":"Point","coordinates":[-73.87427,40.73482]},"properties":{"address":"osm_11565295813","latitude":"40.73482","longitude":"-73.87427","name":"Citi Bike","capacity":"0","operator":"Citi Bike"}}]}
{"type":"FeatureCollection","features":[{"type":"Feature","geometry":{"type":"Point","coordinates":[-73.8774,40.73679]},"properties":{"address":"osm_11565295815","latitude":"40.73679","longitude":"-73.8774","name":"Citi Bike - Queens Bl & Broadway","capacity":"0","operator":"Citi Bike"}}]}
{"type":"FeatureCollection","features":[{"type":"Feature","geometry":{"type":"Point","coordinates":[-73.91602,40.74643]},"properties":{"address":"osm_11565738783","latitude":"40.74643","longitude":"-73.91602","name":"Citi Bike","capacity":"0","operator":"Citi Bike"}}]}
{"type":"FeatureCollection","features":[{"type":"Feature","geometry":{"type":"Point","coordinates":[-73.92918,40.74717]},"properties":{"address":"osm_11565738786","latitude":"40.74717","longitude":"-73.92918","name":"Citi Bike","capacity":"0","operator":"Citi Bike"}}]}
{"type":"FeatureCollection","features":[{"type":"Feature","geometry":{"type":"Point","coordinates":[-73.92796,40.8654]},"properties":{"address":"osm_11585234934","latitude":"40.8654","longitude":"-73.92796","name":"Citi Bike - Broadway / Riverside Dr @ Fort Tyron Park","capacity":"0","operator":"Citi Bike"}}]}
{"type":"FeatureCollection","features":[{"type":"Feature","geometry":{"type":"Point","coordinates":[-73.92268,40.86258]},"properties":{"address":"osm_11587200851","latitude":"40.86258","longitude":"-73.92268","name":"Citi Bike - Academy St / Nagle Av","capacity":"0","operator":"Citi Bike"}}]}
{"type":"FeatureCollection","features":[{"type":"Feature","geometry":{"type":"Point","coordinates":[-73.92948,40.86748]},"properties":{"address":"osm_11587266203","latitude":"40.86748","longitude":"-73.92948","name":"Citi Bike - Dykman St / Henshaw St","capacity":"0","operator":"Citi Bike"}}]}
{"type":"FeatureCollection","features":[{"type":"Feature","geometry":{"type":"Point","coordinates":[-73.92636,40.86751]},"properties":{"address":"osm_11587266224","latitude":"40.86751","longitude":"-73.92636","name":"Citi Bike - Seaman Av / Beak St","capacity":"0","operator":"Citi Bike"}}]}
{"type":"FeatureCollection","features":[{"type":"Feature","geometry":{"type":"Point","coordinates":[-73.91683,40.86766]},"properties":{"address":"osm_11587266271","latitude":"40.86766","longitude":"-73.91683","name":"Citi Bike - W 212 St / 10 Av","capacity":"0","operator":"Citi Bike"}}]}
{"type":"FeatureCollection","features":[{"type":"Feature","geometry":{"type":"Point","coordinates":[-73.91436,40.8714]},"properties":{"address":"osm_11587349736","latitude":"40.8714","longitude":"-73.91436","name":"Citi Bike - W 218 St / Broadway","capacity":"0","operator":"Citi Bike"}}]}
{"type":"FeatureCollection","features":[{"type":"Feature","geometry":{"type":"Point","coordinates":[-73.88809,40.7455]},"properties":{"address":"osm_11587622097","latitude":"40.7455","longitude":"-73.88809","name":"Citi Bike","capacity":"0","operator":"Citi Bike"}}]}
{"type":"FeatureCollection","features":[{"type":"Feature","geometry":{"type":"Point","coordinates":[-73.89371,40.74743]},"properties":{"address":"osm_11587622098","latitude":"40.74743","longitude":"-73.89371","name":"Citi Bike","capacity":"0","operator":"Citi Bike"}}]}
{"type":"FeatureCollection","features":[{"type":"Feature","geometry":{"type":"Point","coordinates":[-73.94184,40.85168]},"properties":{"address":"osm_11595000962","latitude":"40.85168","longitude":"-73.94184","name":"Citi Bike - Lafayette Plz / Riverside Dr","capacity":"0","operator":"Citi Bike"}}]}
{"type":"FeatureCollection","features":[{"type":"Feature","geometry":{"type":"Point","coordinates":[-73.93785,40.85226]},"properties":{"address":"osm_11595000973","latitude":"40.85226","longitude":"-73.93785","name":"Citi Bike - Fort Washington Av / W 183 St","capacity":"0","operator":"Citi Bike"}}]}
{"type":"FeatureCollection","features":[{"type":"Feature","geometry":{"type":"Point","coordinates":[-73.93022,40.84924]},"properties":{"address":"osm_11595081993","latitude":"40.84924","longitude":"-73.93022","name":"Citi Bike - Amsterdam Av / W 183 St","capacity":"0","operator":"Citi Bike"}}]}
{"type":"FeatureCollection","features":[{"type":"Feature","geometry":{"type":"Point","coordinates":[-73.92885,40.85111]},"properties":{"address":"osm_11595082050","latitude":"40.85111","longitude":"-73.92885","name":"Citi Bike - Amsterdam Av / W 186 St","capacity":"20","operator":"Citi Bike"}}]}
{"type":"FeatureCollection","features":[{"type":"Feature","geometry":{"type":"Point","coordinates":[-73.89179,40.75473]},"properties":{"address":"osm_11596208460","latitude":"40.75473","longitude":"-73.89179","name":"Citi Bike - 75 St / Northern Bl","capacity":"0","operator":"Citi Bike"}}]}
{"type":"FeatureCollection","features":[{"type":"Feature","geometry":{"type":"Point","coordinates":[-73.8924,40.75705]},"properties":{"address":"osm_11596208462","latitude":"40.75705","longitude":"-73.8924","name":"Citi Bike - 32 Av / 75 St","capacity":"0","operator":"Citi Bike"}}]}
{"type":"FeatureCollection","features":[{"type":"Feature","geometry":{"type":"Point","coordinates":[-73.89107,40.75097]},"properties":{"address":"osm_11596208463","latitude":"40.75097","longitude":"-73.89107","name":"Citi Bike - 75 St / 35 Av","capacity":"0","operator":"Citi Bike"}}]}
{"type":"FeatureCollection","features":[{"type":"Feature","geometry":{"type":"Point","coordinates":[-73.92718,40.85718]},"properties":{"address":"osm_11596481905","latitude":"40.85718","longitude":"-73.92718","name":"Citi Bike - Ft George Av / Audubon Av","capacity":"0","operator":"Citi Bike"}}]}
{"type":"FeatureCollection","features":[{"type":"Feature","geometry":{"type":"Point","coordinates":[-73.94135,40.8483]},"properties":{"address":"osm_11596488728","latitude":"40.8483","longitude":"-73.94135","name":"Citi Bike - Cabrini Bl / W 177 St","capacity":"0","operator":"Citi Bike"}}]}
{"type":"FeatureCollection","features":[{"type":"Feature","geometry":{"type":"Point","coordinates":[-73.89186,40.87447]},"properties":{"address":"osm_11612540052","latitude":"40.87447","longitude":"-73.89186","name":"Citi Bike - Bedford Pk Bl W / Paul Av @ Lehman College","capacity":"0","operator":"Citi Bike"}}]}
{"type":"FeatureCollection","features":[{"type":"Feature","geometry":{"type":"Point","coordinates":[-73.85107,40.74297]},"properties":{"address":"osm_11642489205","latitude":"40.74297","longitude":"-73.85107","name":"Citi Bike - 111 St / 54 Av","capacity":"0","operator":"Citi Bike"}}]}
{"type":"FeatureCollection","features":[{"type":"Feature","geometry":{"type":"Point","coordinates":[-73.84992,40.74082]},"properties":{"address":"osm_11642489206","latitude":"40.74082","longitude":"-73.84992","name":"Citi Bike - 111 St / Corona Av","capacity":"0","operator":"Citi Bike"}}]}
{"type":"FeatureCollection","features":[{"type":"Feature","geometry":{"type":"Point","coordinates":[-73.91274,40.75577]},"properties":{"address":"osm_11645785847","latitude":"40.75577","longitude":"-73.91274","name":"Citi Bike - 48 St / Broadway","capacity":"0","operator":"Citi Bike"}}]}
{"type":"FeatureCollection","features":[{"type":"Feature","geometry":{"type":"Point","coordinates":[-73.9254,40.75237]},"properties":{"address":"osm_11645913702","latitude":"40.75237","longitude":"-73.9254","name":"Citi Bike - 38 St / Northern Bl","capacity":"0","operator":"Citi Bike"}}]}
{"type":"FeatureCollection","features":[{"type":"Feature","geometry":{"type":"Point","coordinates":[-73.91101,40.7607]},"properties":{"address":"osm_11649769977","latitude":"40.7607","longitude":"-73.91101","name":"Citi Bike - 46 St / 30 Rd","capacity":"0","operator":"Citi Bike"}}]}
{"type":"FeatureCollection","features":[{"type":"Feature","geometry":{"type":"Point","coordinates":[-73.88992,40.77089]},"properties":{"address":"osm_11650074257","latitude":"40.77089","longitude":"-73.88992","name":"Citi Bike - 21 Av / 80 St","capacity":"0","operator":"Citi Bike"}}]}
{"type":"FeatureCollection","features":[{"type":"Feature","geometry":{"type":"Point","coordinates":[-73.89688,40.77295]},"properties":{"address":"osm_11650318135","latitude":"40.77295","longitude":"-73.89688","name":"Citi Bike - 20 Av / 48 St","capacity":"0","operator":"Citi Bike"}}]}
{"type":"FeatureCollection","features":[{"type":"Feature","geometry":{"type":"Point","coordinates":[-73.88565,40.87003]},"properties":{"address":"osm_11691052412","latitude":"40.87003","longitude":"-73.88565","name":"Citi Bike","capacity":"0","operator":"Citi Bike"}}]}
{"type":"FeatureCollection","features":[{"type":"Feature","geometry":{"type":"Point","coordinates":[-73.88411,40.86813]},"properties":{"address":"osm_11691052774","latitude":"40.86813","longitude":"-73.88411","name":"Citi Bike","capacity":"0","operator":"Citi Bike"}}]}
{"type":"FeatureCollection","features":[{"type":"Feature","geometry":{"type":"Point","coordinates":[-73.88154,40.86836]},"properties":{"address":"osm_11691052809","latitude":"40.86836","longitude":"-73.88154","name":"Citi Bike","capacity":"0","operator":"Citi Bike"}}]}
{"type":"FeatureCollection","features":[{"type":"Feature","geometry":{"type":"Point","coordinates":[-73.88189,40.87055]},"properties":{"address":"osm_11691052835","latitude":"40.87055","longitude":"-73.88189","name":"Citi Bike","capacity":"0","operator":"Citi Bike"}}]}
{"type":"FeatureCollection","features":[{"type":"Feature","geometry":{"type":"Point","coordinates":[-73.88459,40.87206]},"properties":{"address":"osm_11691052869","latitude":"40.87206","longitude":"-73.88459","name":"Citi Bike","capacity":"0","operator":"Citi Bike"}}]}
{"type":"FeatureCollection","features":[{"type":"Feature","geometry":{"type":"Point","coordinates":[-73.89098,40.86171]},"properties":{"address":"osm_11691194215","latitude":"40.86171","longitude":"-73.89098","name":"Citi Bike","capacity":"0","operator":"Citi Bike"}}]}
{"type":"FeatureCollection","features":[{"type":"Feature","geometry":{"type":"Point","coordinates":[-73.89148,40.86948]},"properties":{"address":"osm_11691247804","latitude":"40.86948","longitude":"-73.89148","name":"Citi Bike","capacity":"0","operator":"Citi Bike"}}]}
{"type":"FeatureCollection","features":[{"type":"Feature","geometry":{"type":"Point","coordinates":[-73.88845,40.86849]},"properties":{"address":"osm_11691247966","latitude":"40.86849","longitude":"-73.88845","name":"Citi Bike","capacity":"0","operator":"Citi Bike"}}]}
{"type":"FeatureCollection","features":[{"type":"Feature","geometry":{"type":"Point","coordinates":[-73.89042,40.86651]},"properties":{"address":"osm_11691326951","latitude":"40.86651","longitude":"-73.89042","name":"Citi Bike","capacity":"0","operator":"Citi Bike"}}]}
{"type":"FeatureCollection","features":[{"type":"Feature","geometry":{"type":"Point","coordinates":[-73.88338,40.87409]},"properties":{"address":"osm_11691340958","latitude":"40.87409","longitude":"-73.88338","name":"Citi Bike","capacity":"0","operator":"Citi Bike"}}]}
{"type":"FeatureCollection","features":[{"type":"Feature","geometry":{"type":"Point","coordinates":[-74.01981,40.63587]},"properties":{"address":"osm_11702984331","latitude":"40.63587","longitude":"-74.01981","name":"Citi Bike","capacity":"0","operator":"Citi Bike"}}]}
{"type":"FeatureCollection","features":[{"type":"Feature","geometry":{"type":"Point","coordinates":[-73.98617,40.70012]},"properties":{"address":"osm_11709379503","latitude":"40.70012","longitude":"-73.98617","name":"Citi Bike - Sands Street & Jay Street","capacity":"45","operator":"Citi Bike"}}]}
{"type":"FeatureCollection","features":[{"type":"Feature","geometry":{"type":"Point","coordinates":[-73.98373,40.69845]},"properties":{"address":"osm_11710404828","latitude":"40.69845","longitude":"-73.98373","name":"Citi Bike - Nassau Street & Duffield Street","capacity":"45","operator":"Citi Bike"}}]}
{"type":"FeatureCollection","features":[{"type":"Feature","geometry":{"type":"Point","coordinates":[-73.96517,40.76315]},"properties":{"address":"osm_11717083181","latitude":"40.76315","longitude":"-73.96517","name":"Citi Bike","capacity":"0","operator":"Citi Bike"}}]}
{"type":"FeatureCollection","features":[{"type":"Feature","geometry":{"type":"Point","coordinates":[-73.96461,40.76395]},"properties":{"address":"osm_11717083189","latitude":"40.76395","longitude":"-73.96461","name":"Citi Bike","capacity":"0","operator":"Citi Bike"}}]}
{"type":"FeatureCollection","features":[{"type":"Feature","geometry":{"type":"Point","coordinates":[-73.98475,40.69764]},"properties":{"address":"osm_11726170336","latitude":"40.69764","longitude":"-73.98475","name":"Citi Bike - Concord Street & Bridge Street","capacity":"17","operator":"Citi Bike"}}]}
{"type":"FeatureCollection","features":[{"type":"Feature","geometry":{"type":"Point","coordinates":[-73.84685,40.75547]},"properties":{"address":"osm_11734967845","latitude":"40.75547","longitude":"-73.84685","name":"Citi Bike - Citi Field Mets Plaza","capacity":"0","operator":"Citi Bike"}}]}
{"type":"FeatureCollection","features":[{"type":"Feature","geometry":{"type":"Point","coordinates":[-73.8722,40.75711]},"properties":{"address":"osm_11742273856","latitude":"40.75711","longitude":"-73.8722","name":"Citi Bike","capacity":"0","operator":"Citi Bike"}}]}
{"type":"FeatureCollection","features":[{"type":"Feature","geometry":{"type":"Point","coordinates":[-73.86455,40.75756]},"properties":{"address":"osm_11742290174","latitude":"40.75756","longitude":"-73.86455","name":"Citi Bike","capacity":"0","operator":"Citi Bike"}}]}
{"type":"FeatureCollection","features":[{"type":"Feature","geometry":{"type":"Point","coordinates":[-73.88266,40.75601]},"properties":{"address":"osm_11742696255","latitude":"40.75601","longitude":"-73.88266","name":"Citi Bike","capacity":"0","operator":"Citi Bike"}}]}
{"type":"FeatureCollection","features":[{"type":"Feature","geometry":{"type":"Point","coordinates":[-73.88219,40.75959]},"properties":{"address":"osm_11742740327","latitude":"40.75959","longitude":"-73.88219","name":"Citi Bike","capacity":"0","operator":"Citi Bike"}}]}
{"type":"FeatureCollection","features":[{"type":"Feature","geometry":{"type":"Point","coordinates":[-73.8731,40.76086]},"properties":{"address":"osm_11742740328","latitude":"40.76086","longitude":"-73.8731","name":"Citi Bike","capacity":"0","operator":"Citi Bike"}}]}
{"type":"FeatureCollection","features":[{"type":"Feature","geometry":{"type":"Point","coordinates":[-73.90602,40.76968]},"properties":{"address":"osm_11787366544","latitude":"40.76968","longitude":"-73.90602","name":"Citi Bike","capacity":"0","operator":"Citi Bike"}}]}
{"type":"FeatureCollection","features":[{"type":"Feature","geometry":{"type":"Point","coordinates":[-73.98315,40.67671]},"properties":{"address":"osm_11800070192","latitude":"40.67671","longitude":"-73.98315","name":"Citi Bike","capacity":"0","operator":"Citi Bike"}}]}
{"type":"FeatureCollection","features":[{"type":"Feature","geometry":{"type":"Point","coordinates":[-73.96484,40.80594]},"properties":{"address":"osm_11817909915","latitude":"40.80594","longitude":"-73.96484","name":"Citi Bike","capacity":"0","operator":"Citi Bike"}}]}
{"type":"FeatureCollection","features":[{"type":"Feature","geometry":{"type":"Point","coordinates":[-73.86033,40.76136]},"properties":{"address":"osm_11825855194","latitude":"40.76136","longitude":"-73.86033","name":"Citi Bike","capacity":"0","operator":"Citi Bike"}}]}
{"type":"FeatureCollection","features":[{"type":"Feature","geometry":{"type":"Point","coordinates":[-73.85267,40.74599]},"properties":{"address":"osm_11826285732","latitude":"40.74599","longitude":"-73.85267","name":"Citi Bike","capacity":"0","operator":"Citi Bike"}}]}
{"type":"FeatureCollection","features":[{"type":"Feature","geometry":{"type":"Point","coordinates":[-73.85144,40.74356]},"properties":{"address":"osm_11826285733","latitude":"40.74356","longitude":"-73.85144","name":"Citi Bike","capacity":"25","operator":"Citi Bike"}}]}
{"type":"FeatureCollection","features":[{"type":"Feature","geometry":{"type":"Point","coordinates":[-73.96647,40.79903]},"properties":{"address":"osm_11872682670","latitude":"40.79903","longitude":"-73.96647","name":"Citi Bike","capacity":"0","operator":"Citi Bike"}}]}
{"type":"FeatureCollection","features":[{"type":"Feature","geometry":{"type":"Point","coordinates":[-73.96615,40.80071]},"properties":{"address":"osm_11873613000","latitude":"40.80071","longitude":"-73.96615","name":"Citi Bike","capacity":"0","operator":"Citi Bike"}}]}
{"type":"FeatureCollection","features":[{"type":"Feature","geometry":{"type":"Point","coordinates":[-73.92717,40.80747]},"properties":{"address":"osm_11879930412","latitude":"40.80747","longitude":"-73.92717","name":"Citi Bike","capacity":"0","operator":"Citi Bike"}}]}
{"type":"FeatureCollection","features":[{"type":"Feature","geometry":{"type":"Point","coordinates":[-73.93604,40.80645]},"properties":{"address":"osm_11879930428","latitude":"40.80645","longitude":"-73.93604","name":"Citi Bike","capacity":"0","operator":"Citi Bike"}}]}
{"type":"FeatureCollection","features":[{"type":"Feature","geometry":{"type":"Point","coordinates":[-73.93914,40.80756]},"properties":{"address":"osm_11887700254","latitude":"40.80756","longitude":"-73.93914","name":"Citi Bike","capacity":"0","operator":"Citi Bike"}}]}
{"type":"FeatureCollection","features":[{"type":"Feature","geometry":{"type":"Point","coordinates":[-73.95519,40.80996]},"properties":{"address":"osm_11887802373","latitude":"40.80996","longitude":"-73.95519","name":"Citi Bike - Morningside Av / W 123 St","capacity":"0","operator":"Citi Bike"}}]}
{"type":"FeatureCollection","features":[{"type":"Feature","geometry":{"type":"Point","coordinates":[-73.89355,40.69716]},"properties":{"address":"osm_11913934564","latitude":"40.69716","longitude":"-73.89355","name":"Citi Bike","capacity":"0","operator":"Citi Bike"}}]}
{"type":"FeatureCollection","features":[{"type":"Feature","geometry":{"type":"Point","coordinates":[-73.97023,40.79732]},"properties":{"address":"osm_11941437765","latitude":"40.79732","longitude":"-73.97023","name":"Citi Bike","capacity":"0","operator":"Citi Bike"}}]}
{"type":"FeatureCollection","features":[{"type":"Feature","geometry":{"type":"Point","coordinates":[-73.97764,40.77862]},"properties":{"address":"osm_11948944398","latitude":"40.77862","longitude":"-73.97764","name":"Citi Bike","capacity":"0","operator":"Citi Bike"}}]}
{"type":"FeatureCollection","features":[{"type":"Feature","geometry":{"type":"Point","coordinates":[-73.97398,40.79219]},"properties":{"address":"osm_11949721938","latitude":"40.79219","longitude":"-73.97398","name":"Citi Bike","capacity":"0","operator":"Citi Bike"}}]}
{"type":"FeatureCollection","features":[{"type":"Feature","geometry":{"type":"Point","coordinates":[-73.96422,40.80824]},"properties":{"address":"osm_11953102758","latitude":"40.80824","longitude":"-73.96422","name":"Citi Bike","capacity":"0","operator":"Citi Bike"}}]}
{"type":"FeatureCollection","features":[{"type":"Feature","geometry":{"type":"Point","coordinates":[-73.97203,40.79385]},"properties":{"address":"osm_11961946663","latitude":"40.79385","longitude":"-73.97203","name":"Citi Bike","capacity":"0","operator":"Citi Bike"}}]}
{"type":"FeatureCollection","features":[{"type":"Feature","geometry":{"type":"Point","coordinates":[-73.95717,40.80169]},"properties":{"address":"osm_11971474971","latitude":"40.80169","longitude":"-73.95717","name":"Citi Bike","capacity":"0","operator":"Citi Bike"}}]}
{"type":"FeatureCollection","features":[{"type":"Feature","geometry":{"type":"Point","coordinates":[-73.90917,40.68467]},"properties":{"address":"osm_11973785375","latitude":"40.68467","longitude":"-73.90917","name":"Citi Bike","capacity":"18","operator":"Citi Bike"}}]}
{"type":"FeatureCollection","features":[{"type":"Feature","geometry":{"type":"Point","coordinates":[-73.92362,40.80837]},"properties":{"address":"osm_11976544846","latitude":"40.80837","longitude":"-73.92362","name":"Citi Bike","capacity":"0","operator":"Citi Bike"}}]}
{"type":"FeatureCollection","features":[{"type":"Feature","geometry":{"type":"Point","coordinates":[-73.95316,40.80979]},"properties":{"address":"osm_11980101148","latitude":"40.80979","longitude":"-73.95316","name":"Citi Bike","capacity":"0","operator":"Citi Bike"}}]}
{"type":"FeatureCollection","features":[{"type":"Feature","geometry":{"type":"Point","coordinates":[-73.94781,40.80928]},"properties":{"address":"osm_11980276295","latitude":"40.80928","longitude":"-73.94781","name":"Citi Bike","capacity":"0","operator":"Citi Bike"}}]}
{"type":"FeatureCollection","features":[{"type":"Feature","geometry":{"type":"Point","coordinates":[-73.9565,40.81332]},"properties":{"address":"osm_11982188294","latitude":"40.81332","longitude":"-73.9565","name":"Citi Bike","capacity":"0","operator":"Citi Bike"}}]}
{"type":"FeatureCollection","features":[{"type":"Feature","geometry":{"type":"Point","coordinates":[-73.99856,40.74055]},"properties":{"address":"osm_11998905831","latitude":"40.74055","longitude":"-73.99856","name":"Citi Bike","capacity":"39","operator":"Citi Bike"}}]}
{"type":"FeatureCollection","features":[{"type":"Feature","geometry":{"type":"Point","coordinates":[-73.93866,40.84296]},"properties":{"address":"osm_12027274589","latitude":"40.84296","longitude":"-73.93866","name":"Citi Bike","capacity":"0","operator":"Citi Bike"}}]}
{"type":"FeatureCollection","features":[{"type":"Feature","geometry":{"type":"Point","coordinates":[-73.96442,40.79492]},"properties":{"address":"osm_12035125332","latitude":"40.79492","longitude":"-73.96442","name":"Citi Bike","capacity":"0","operator":"Citi Bike"}}]}
{"type":"FeatureCollection","features":[{"type":"Feature","geometry":{"type":"Point","coordinates":[-73.96189,40.79566]},"properties":{"address":"osm_12035316651","latitude":"40.79566","longitude":"-73.96189","name":"Citi Bike","capacity":"0","operator":"Citi Bike"}}]}
{"type":"FeatureCollection","features":[{"type":"Feature","geometry":{"type":"Point","coordinates":[-73.93603,40.82109]},"properties":{"address":"osm_12037268480","latitude":"40.82109","longitude":"-73.93603","name":"Citi Bike","capacity":"0","operator":"Citi Bike"}}]}
{"type":"FeatureCollection","features":[{"type":"Feature","geometry":{"type":"Point","coordinates":[-73.91938,40.82374]},"properties":{"address":"osm_12038478944","latitude":"40.82374","longitude":"-73.91938","name":"Citi Bike","capacity":"0","operator":"Citi Bike"}}]}
{"type":"FeatureCollection","features":[{"type":"Feature","geometry":{"type":"Point","coordinates":[-73.93735,40.82274]},"properties":{"address":"osm_12039263320","latitude":"40.82274","longitude":"-73.93735","name":"Citi Bike","capacity":"0","operator":"Citi Bike"}}]}
{"type":"FeatureCollection","features":[{"type":"Feature","geometry":{"type":"Point","coordinates":[-73.91091,40.82399]},"properties":{"address":"osm_12039986443","latitude":"40.82399","longitude":"-73.91091","name":"Citi Bike","capacity":"0","operator":"Citi Bike"}}]}
{"type":"FeatureCollection","features":[{"type":"Feature","geometry":{"type":"Point","coordinates":[-73.91735,40.81683]},"properties":{"address":"osm_12040128193","latitude":"40.81683","longitude":"-73.91735","name":"Citi Bike","capacity":"0","operator":"Citi Bike"}}]}
{"type":"FeatureCollection","features":[{"type":"Feature","geometry":{"type":"Point","coordinates":[-73.91609,40.8196]},"properties":{"address":"osm_12040128226","latitude":"40.8196","longitude":"-73.91609","name":"Citi Bike","capacity":"0","operator":"Citi Bike"}}]}
{"type":"FeatureCollection","features":[{"type":"Feature","geometry":{"type":"Point","coordinates":[-73.91956,40.8164]},"properties":{"address":"osm_12040128306","latitude":"40.8164","longitude":"-73.91956","name":"Citi Bike","capacity":"0","operator":"Citi Bike"}}]}
{"type":"FeatureCollection","features":[{"type":"Feature","geometry":{"type":"Point","coordinates":[-73.9168,40.82227]},"properties":{"address":"osm_12040128337","latitude":"40.82227","longitude":"-73.9168","name":"Citi Bike","capacity":"0","operator":"Citi Bike"}}]}
{"type":"FeatureCollection","features":[{"type":"Feature","geometry":{"type":"Point","coordinates":[-73.91758,40.82059]},"properties":{"address":"osm_12040128365","latitude":"40.82059","longitude":"-73.91758","name":"Citi Bike","capacity":"0","operator":"Citi Bike"}}]}
{"type":"FeatureCollection","features":[{"type":"Feature","geometry":{"type":"Point","coordinates":[-73.92497,40.81445]},"properties":{"address":"osm_12040837242","latitude":"40.81445","longitude":"-73.92497","name":"Citi Bike","capacity":"0","operator":"Citi Bike"}}]}
{"type":"FeatureCollection","features":[{"type":"Feature","geometry":{"type":"Point","coordinates":[-73.97285,40.79016]},"properties":{"address":"osm_12044653912","latitude":"40.79016","longitude":"-73.97285","name":"Citi Bike","capacity":"0","operator":"Citi Bike"}}]}
{"type":"FeatureCollection","features":[{"type":"Feature","geometry":{"type":"Point","coordinates":[-73.96386,40.79297]},"properties":{"address":"osm_12054635302","latitude":"40.79297","longitude":"-73.96386","name":"Citi Bike","capacity":"52","operator":"Citi Bike"}}]}
{"type":"FeatureCollection","features":[{"type":"Feature","geometry":{"type":"Point","coordinates":[-73.85465,40.74955]},"properties":{"address":"osm_12077743785","latitude":"40.74955","longitude":"-73.85465","name":"Citi Bike","capacity":"0","operator":"Citi Bike"}}]}
{"type":"FeatureCollection","features":[{"type":"Feature","geometry":{"type":"Point","coordinates":[-73.86622,40.75586]},"properties":{"address":"osm_12077743786","latitude":"40.75586","longitude":"-73.86622","name":"Citi Bike","capacity":"0","operator":"Citi Bike"}}]}
{"type":"FeatureCollection","features":[{"type":"Feature","geometry":{"type":"Point","coordinates":[-73.88112,40.74454]},"properties":{"address":"osm_12077743787","latitude":"40.74454","longitude":"-73.88112","name":"Citi Bike","capacity":"0","operator":"Citi Bike"}}]}
{"type":"FeatureCollection","features":[{"type":"Feature","geometry":{"type":"Point","coordinates":[-73.85743,40.75397]},"properties":{"address":"osm_12077743788","latitude":"40.75397","longitude":"-73.85743","name":"Citi Bike - 110th Street & 37th Avenue","capacity":"0","operator":"Citi Bike"}}]}
{"type":"FeatureCollection","features":[{"type":"Feature","geometry":{"type":"Point","coordinates":[-73.85567,40.75145]},"properties":{"address":"osm_12077743790","latitude":"40.75145","longitude":"-73.85567","name":"Citi Bike","capacity":"0","operator":"Citi Bike"}}]}
{"type":"FeatureCollection","features":[{"type":"Feature","geometry":{"type":"Point","coordinates":[-73.94182,40.7212]},"properties":{"address":"osm_12100839784","latitude":"40.7212","longitude":"-73.94182","name":"Citi Bike","capacity":"15","operator":"Citi Bike"}}]}
{"type":"FeatureCollection","features":[{"type":"Feature","geometry":{"type":"Point","coordinates":[-73.97487,40.67123]},"properties":{"address":"osm_12104946124","latitude":"40.67123","longitude":"-73.97487","name":"Unnamed Station","capacity":"0","operator":"Citi Bike"}}]}
{"type":"FeatureCollection","features":[{"type":"Feature","geometry":{"type":"Point","coordinates":[-73.93184,40.77192]},"properties":{"address":"osm_12115741183","latitude":"40.77192","longitude":"-73.93184","name":"Citi Bike - 30 Ave & 12 St","capacity":"33","operator":"Citi Bike"}}]}
{"type":"FeatureCollection","features":[{"type":"Feature","geometry":{"type":"Point","coordinates":[-73.92427,40.758]},"properties":{"address":"osm_12133067407","latitude":"40.758","longitude":"-73.92427","name":"Citi Bike","capacity":"0","operator":"Citi Bike"}}]}
{"type":"FeatureCollection","features":[{"type":"Feature","geometry":{"type":"Point","coordinates":[-73.94838,40.72078]},"properties":{"address":"osm_12144931074","latitude":"40.72078","longitude":"-73.94838","name":"Citi Bike - Manhattan Ave & Leonard St","capacity":"18","operator":"Citi Bike"}}]}
{"type":"FeatureCollection","features":[{"type":"Feature","geometry":{"type":"Point","coordinates":[-73.98116,40.77952]},"properties":{"address":"osm_12152888747","latitude":"40.77952","longitude":"-73.98116","name":"Citi Bike","capacity":"0","operator":"Citi Bike"}}]}
{"type":"FeatureCollection","features":[{"type":"Feature","geometry":{"type":"Point","coordinates":[-73.97057,40.7883]},"properties":{"address":"osm_12185721136","latitude":"40.7883","longitude":"-73.97057","name":"Citi Bike","capacity":"0","operator":"Citi Bike"}}]}
{"type":"FeatureCollection","features":[{"type":"Feature","geometry":{"type":"Point","coordinates":[-74.02561,40.64251]},"properties":{"address":"osm_12215162848","latitude":"40.64251","longitude":"-74.02561","name":"Citi Bike","capacity":"0","operator":"Citi Bike"}}]}
{"type":"FeatureCollection","features":[{"type":"Feature","geometry":{"type":"Point","coordinates":[-73.98081,40.78334]},"properties":{"address":"osm_12215343077","latitude":"40.78334","longitude":"-73.98081","name":"Citi Bike","capacity":"0","operator":"Citi Bike"}}]}
{"type":"FeatureCollection","features":[{"type":"Feature","geometry":{"type":"Point","coordinates":[-73.8909,40.85723]},"properties":{"address":"osm_12216993954","latitude":"40.85723","longitude":"-73.8909","name":"Citi Bike - E 187 St & 3rd Av","capacity":"0","operator":"Citi Bike"}}]}
{"type":"FeatureCollection","features":[{"type":"Feature","geometry":{"type":"Point","coordinates":[-73.89136,40.8598]},"properties":{"address":"osm_12216993959","latitude":"40.8598","longitude":"-73.89136","name":"Citi Bike","capacity":"0","operator":"Citi Bike"}}]}
{"type":"FeatureCollection","features":[{"type":"Feature","geometry":{"type":"Point","coordinates":[-73.88622,40.74365]},"properties":{"address":"osm_12253297229","latitude":"40.74365","longitude":"-73.88622","name":"Citi Bike","capacity":"18","operator":"Citi Bike"}}]}
{"type":"FeatureCollection","features":[{"type":"Feature","geometry":{"type":"Point","coordinates":[-73.8953,40.7584]},"properties":{"address":"osm_12255818806","latitude":"40.7584","longitude":"-73.8953","name":"Citi Bike","capacity":"0","operator":"Citi Bike"}}]}
{"type":"FeatureCollection","features":[{"type":"Feature","geometry":{"type":"Point","coordinates":[-73.86242,40.75137]},"properties":{"address":"osm_12261101003","latitude":"40.75137","longitude":"-73.86242","name":"Citi Bike - 104th Street & 38th Avenue","capacity":"0","operator":"Citi Bike"}}]}
{"type":"FeatureCollection","features":[{"type":"Feature","geometry":{"type":"Point","coordinates":[-73.88873,40.69953]},"properties":{"address":"osm_12356827582","latitude":"40.69953","longitude":"-73.88873","name":"Citi Bike","capacity":"0","operator":"Citi Bike"}}]}
{"type":"FeatureCollection","features":[{"type":"Feature","geometry":{"type":"Point","coordinates":[-73.91153,40.84045]},"properties":{"address":"osm_12367935672","latitude":"40.84045","longitude":"-73.91153","name":"Citi Bike","capacity":"0","operator":"Citi Bike"}}]}
{"type":"FeatureCollection","features":[{"type":"Feature","geometry":{"type":"Point","coordinates":[-73.89042,40.70123]},"properties":{"address":"osm_12378933894","latitude":"40.70123","longitude":"-73.89042","name":"Citi Bike","capacity":"0","operator":"Citi Bike"}}]}
{"type":"FeatureCollection","features":[{"type":"Feature","geometry":{"type":"Point","coordinates":[-73.94541,40.7216]},"properties":{"address":"osm_12398479510","latitude":"40.7216","longitude":"-73.94541","name":"Engert Avenue & McGuinness Boulevard","capacity":"18","operator":"Citi Bike"}}]}
{"type":"FeatureCollection","features":[{"type":"Feature","geometry":{"type":"Point","coordinates":[-73.9515,40.73125]},"properties":{"address":"osm_12398479583","latitude":"40.73125","longitude":"-73.9515","name":"Citi Bike - Kent St & McGuinness Blvd","capacity":"20","operator":"Citi Bike"}}]}
{"type":"FeatureCollection","features":[{"type":"Feature","geometry":{"type":"Point","coordinates":[-73.95588,40.8039]},"properties":{"address":"osm_12410916763","latitude":"40.8039","longitude":"-73.95588","name":"Citi Bike","capacity":"0","operator":"Citi Bike"}}]}
{"type":"FeatureCollection","features":[{"type":"Feature","geometry":{"type":"Point","coordinates":[-73.94434,40.6768]},"properties":{"address":"osm_12433874011","latitude":"40.6768","longitude":"-73.94434","name":"Citi Bike","capacity":"0","operator":"Citi Bike"}}]}
{"type":"FeatureCollection","features":[{"type":"Feature","geometry":{"type":"Point","coordinates":[-73.97369,40.64772]},"properties":{"address":"osm_12461746709","latitude":"40.64772","longitude":"-73.97369","name":"Citi Bike","capacity":"0","operator":"Citi Bike"}}]}
{"type":"FeatureCollection","features":[{"type":"Feature","geometry":{"type":"Point","coordinates":[-73.97244,40.64806]},"properties":{"address":"osm_12461746711","latitude":"40.64806","longitude":"-73.97244","name":"Citi Bike","capacity":"0","operator":"Citi Bike"}}]}
{"type":"FeatureCollection","features":[{"type":"Feature","geometry":{"type":"Point","coordinates":[-73.89564,40.74182]},"properties":{"address":"osm_12596710268","latitude":"40.74182","longitude":"-73.89564","name":"Citi Bike","capacity":"19","operator":"Citi Bike"}}]}
{"type":"FeatureCollection","features":[{"type":"Feature","geometry":{"type":"Point","coordinates":[-73.89587,40.74279]},"properties":{"address":"osm_12596710269","latitude":"40.74279","longitude":"-73.89587","name":"Citi Bike","capacity":"0","operator":"Citi Bike"}}]}
{"type":"FeatureCollection","features":[{"type":"Feature","geometry":{"type":"Point","coordinates":[-73.88175,40.85351]},"properties":{"address":"osm_12623926700","latitude":"40.85351","longitude":"-73.88175","name":"Citi Bike","capacity":"0","operator":"Citi Bike"}}]}
{"type":"FeatureCollection","features":[{"type":"Feature","geometry":{"type":"Point","coordinates":[-73.98072,40.73004]},"properties":{"address":"osm_12636683488","latitude":"40.73004","longitude":"-73.98072","name":"Citi Bike - Ave A & E 14 St","capacity":"39","operator":"Citi Bike"}}]}
{"type":"FeatureCollection","features":[{"type":"Feature","geometry":{"type":"Point","coordinates":[-73.98163,40.7288]},"properties":{"address":"osm_12636761756","latitude":"40.7288","longitude":"-73.98163","name":"Citi Bike - Ave A & E 11 St","capacity":"62","operator":"Citi Bike"}}]}
{"type":"FeatureCollection","features":[{"type":"Feature","geometry":{"type":"Point","coordinates":[-73.97973,40.72753]},"properties":{"address":"osm_12636761757","latitude":"40.72753","longitude":"-73.97973","name":"Citi Bike - E 11 St & Ave B","capacity":"49","operator":"Citi Bike"}}]}
{"type":"FeatureCollection","features":[{"type":"Feature","geometry":{"type":"Point","coordinates":[-73.97709,40.72734]},"properties":{"address":"osm_12636761758","latitude":"40.72734","longitude":"-73.97709","name":"Citi Bike - E 12 St & Ave C","capacity":"39","operator":"Citi Bike"}}]}
{"type":"FeatureCollection","features":[{"type":"Feature","geometry":{"type":"Point","coordinates":[-73.97921,40.72419]},"properties":{"address":"osm_12636761759","latitude":"40.72419","longitude":"-73.97921","name":"Citi Bike - E 7 St & Ave C","capacity":"37","operator":"Citi Bike"}}]}
{"type":"FeatureCollection","features":[{"type":"Feature","geometry":{"type":"Point","coordinates":[-73.84848,40.75775]},"properties":{"address":"osm_12639521843","latitude":"40.75775","longitude":"-73.84848","name":"Unnamed Station","capacity":"29","operator":"Citi Bike"}}]}
{"type":"FeatureCollection","features":[{"type":"Feature","geometry":{"type":"Point","coordinates":[-74.02679,40.63939]},"properties":{"address":"osm_12648798418","latitude":"40.63939","longitude":"-74.02679","name":"Citi Bike","capacity":"0","operator":"Citi Bike"}}]}
{"type":"FeatureCollection","features":[{"type":"Feature","geometry":{"type":"Point","coordinates":[-73.99548,40.66256]},"properties":{"address":"osm_12696756689","latitude":"40.66256","longitude":"-73.99548","name":"Citi Bike","capacity":"25","operator":"Citi Bike"}}]}
{"type":"FeatureCollection","features":[{"type":"Feature","geometry":{"type":"Point","coordinates":[-73.89657,40.74683]},"properties":{"address":"osm_12754682765","latitude":"40.74683","longitude":"-73.89657","name":"Citi Bike","capacity":"0","operator":"Citi Bike"}}]}
{"type":"FeatureCollection","features":[{"type":"Feature","geometry":{"type":"Point","coordinates":[-73.89991,40.74897]},"properties":{"address":"osm_12754682766","latitude":"40.74897","longitude":"-73.89991","name":"Citi Bike","capacity":"0","operator":"Citi Bike"}}]}
{"type":"FeatureCollection","features":[{"type":"Feature","geometry":{"type":"Point","coordinates":[-73.89224,40.753]},"properties":{"address":"osm_12784205748","latitude":"40.753","longitude":"-73.89224","name":"Citi Bike","capacity":"0","operator":"Citi Bike"}}]}
{"type":"FeatureCollection","features":[{"type":"Feature","geometry":{"type":"Point","coordinates":[-73.9525,40.79222]},"properties":{"address":"osm_12806460099","latitude":"40.79222","longitude":"-73.9525","name":"Citi Bike","capacity":"0","operator":"Citi Bike"}}]}
{"type":"FeatureCollection","features":[{"type":"Feature","geometry":{"type":"Point","coordinates":[-73.95479,40.76898]},"properties":{"address":"osm_12815622098","latitude":"40.76898","longitude":"-73.95479","name":"Citi Bike","capacity":"0","operator":"Citi Bike"}}]}
{"type":"FeatureCollection","features":[{"type":"Feature","geometry":{"type":"Point","coordinates":[-73.95566,40.79951]},"properties":{"address":"osm_12818423699","latitude":"40.79951","longitude":"-73.95566","name":"Citi Bike - Central Park North & Adam Clayton Powell Boulevard","capacity":"35","operator":"Citi Bike"}}]}
{"type":"FeatureCollection","features":[{"type":"Feature","geometry":{"type":"Point","coordinates":[-73.92586,40.7087]},"properties":{"address":"osm_12847161659","latitude":"40.7087","longitude":"-73.92586","name":"Citi Bike","capacity":"0","operator":"Citi Bike"}}]}
{"type":"FeatureCollection","features":[{"type":"Feature","geometry":{"type":"Point","coordinates":[-73.9216,40.70907]},"properties":{"address":"osm_12847161660","latitude":"40.70907","longitude":"-73.9216","name":"Citi Bike","capacity":"0","operator":"Citi Bike"}}]}
{"type":"FeatureCollection","features":[{"type":"Feature","geometry":{"type":"Point","coordinates":[-74.02608,40.64655]},"properties":{"address":"osm_12847715980","latitude":"40.64655","longitude":"-74.02608","name":"Citi Bike","capacity":"0","operator":"Citi Bike"}}]}
{"type":"FeatureCollection","features":[{"type":"Feature","geometry":{"type":"Point","coordinates":[-73.92131,40.69125]},"properties":{"address":"osm_12865256202","latitude":"40.69125","longitude":"-73.92131","name":"Citi Bike","capacity":"0","operator":"Citi Bike"}}]}
{"type":"FeatureCollection","features":[{"type":"Feature","geometry":{"type":"Point","coordinates":[-73.99405,40.75639]},"properties":{"address":"osm_12899507210","latitude":"40.75639","longitude":"-73.99405","name":"Citi Bike - 9 Avenue & W 39 Street","capacity":"33","operator":"Citi Bike"}}]}
{"type":"FeatureCollection","features":[{"type":"Feature","geometry":{"type":"Point","coordinates":[-73.9361,40.84849]},"properties":{"address":"osm_12925573379","latitude":"40.84849","longitude":"-73.9361","name":"Citi Bike","capacity":"0","operator":"Citi Bike"}}]}
{"type":"FeatureCollection","features":[{"type":"Feature","geometry":{"type":"Point","coordinates":[-73.88298,40.74281]},"properties":{"address":"osm_12954469452","latitude":"40.74281","longitude":"-73.88298","name":"Citi Bike","capacity":"0","operator":"Citi Bike"}}]}
{"type":"FeatureCollection","features":[{"type":"Feature","geometry":{"type":"Point","coordinates":[-73.94569,40.7456]},"properties":{"address":"osm_13002351473","latitude":"40.7456","longitude":"-73.94569","name":"Citi Bike - Davis St & Jackson Ave","capacity":"0","operator":"Citi Bike"}}]}
{"type":"FeatureCollection","features":[{"type":"Feature","geometry":{"type":"Point","coordinates":[-73.94515,40.83396]},"properties":{"address":"osm_13030298561","latitude":"40.83396","longitude":"-73.94515","name":"Citi Bike","capacity":"0","operator":"Citi Bike"}}]}
{"type":"FeatureCollection","features":[{"type":"Feature","geometry":{"type":"Point","coordinates":[-73.97469,40.78842]},"properties":{"address":"osm_13030609834","latitude":"40.78842","longitude":"-73.97469","name":"Citi Bike","capacity":"0","operator":"Citi Bike"}}]}
{"type":"FeatureCollection","features":[{"type":"Feature","geometry":{"type":"Point","coordinates":[-73.95345,40.76665]},"properties":{"address":"osm_13081649402","latitude":"40.76665","longitude":"-73.95345","name":"Citi Bike","capacity":"0","operator":"Citi Bike"}}]}
{"type":"FeatureCollection","features":[{"type":"Feature","geometry":{"type":"Point","coordinates":[-73.94189,40.67321]},"properties":{"address":"osm_1672905744","latitude":"40.67321","longitude":"-73.94189","name":"Citi Bike","capacity":"0","operator":"Citi Bike"}}]}
{"type":"FeatureCollection","features":[{"type":"Feature","geometry":{"type":"Point","coordinates":[-73.98142,40.72741]},"properties":{"address":"osm_2337585114","latitude":"40.72741","longitude":"-73.98142","name":"Citi Bike - E 10 St & Avenue A","capacity":"41","operator":"Citi Bike"}}]}
{"type":"FeatureCollection","features":[{"type":"Feature","geometry":{"type":"Point","coordinates":[-73.98605,40.72801]},"properties":{"address":"osm_2337590687","latitude":"40.72801","longitude":"-73.98605","name":"Citi Bike - Saint Marks Place & 1st Avenue","capacity":"27","operator":"Citi Bike"}}]}
{"type":"FeatureCollection","features":[{"type":"Feature","geometry":{"type":"Point","coordinates":[-73.9838,40.72622]},"properties":{"address":"osm_2337592483","latitude":"40.72622","longitude":"-73.9838","name":"Citi Bike - East 7th Street & Avenue A","capacity":"31","operator":"Citi Bike"}}]}
{"type":"FeatureCollection","features":[{"type":"Feature","geometry":{"type":"Point","coordinates":[-74.00013,40.6917]},"properties":{"address":"osm_2342949842","latitude":"40.6917","longitude":"-74.00013","name":"Citi Bike - Atlantic Ave & Furman St","capacity":"31","operator":"Citi Bike"}}]}
{"type":"FeatureCollection","features":[{"type":"Feature","geometry":{"type":"Point","coordinates":[-73.98988,40.72035]},"properties":{"address":"osm_2352403292","latitude":"40.72035","longitude":"-73.98988","name":"Citi Bike - Allen Street & Rivington Street","capacity":"42","operator":"Citi Bike"}}]}
{"type":"FeatureCollection","features":[{"type":"Feature","geometry":{"type":"Point","coordinates":[-73.98989,40.71429]},"properties":{"address":"osm_2453049340","latitude":"40.71429","longitude":"-73.98989","name":"Citi Bike - Canal Street & Seward Park","capacity":"27","operator":"Citi Bike"}}]}
{"type":"FeatureCollection","features":[{"type":"Feature","geometry":{"type":"Point","coordinates":[-73.99043,40.77146]},"properties":{"address":"osm_2583190801","latitude":"40.77146","longitude":"-73.99043","name":"Citi Bike - 11th Avenue & West 59th Street","capacity":"36","operator":"Citi Bike"}}]}
{"type":"FeatureCollection","features":[{"type":"Feature","geometry":{"type":"Point","coordinates":[-73.9895,40.69251]},"properties":{"address":"osm_2596227494","latitude":"40.69251","longitude":"-73.9895","name":"Citi Bike - Fulton Street & Adams Street","capacity":"43","operator":"Citi Bike"}}]}
{"type":"FeatureCollection","features":[{"type":"Feature","geometry":{"type":"Point","coordinates":[-73.97969,40.74395]},"properties":{"address":"osm_2622671494","latitude":"40.74395","longitude":"-73.97969","name":"Citi Bike - East 31st Street & 3rd Avenue","capacity":"47","operator":"Citi Bike"}}]}
{"type":"FeatureCollection","features":[{"type":"Feature","geometry":{"type":"Point","coordinates":[-73.97077,40.75833]},"properties":{"address":"osm_2629371816","latitude":"40.75833","longitude":"-73.97077","name":"Citi Bike - East 53rd Street & Lexington Avenue","capacity":"34","operator":"Citi Bike"}}]}
{"type":"FeatureCollection","features":[{"type":"Feature","geometry":{"type":"Point","coordinates":[-73.95954,40.75866]},"properties":{"address":"osm_2629371817","latitude":"40.75866","longitude":"-73.95954","name":"Citi Bike - East 59th Street & Sutton Place","capacity":"0","operator":"Citi Bike"}}]}
{"type":"FeatureCollection","features":[{"type":"Feature","geometry":{"type":"Point","coordinates":[-74.00443,40.74207]},"properties":{"address":"osm_3146474830","latitude":"40.74207","longitude":"-74.00443","name":"Citi Bike - 9th Avenue & West 16th Street","capacity":"25","operator":"Citi Bike"}}]}
{"type":"FeatureCollection","features":[{"type":"Feature","geometry":{"type":"Point","coordinates":[-74.00811,40.73924]},"properties":{"address":"osm_3146484929","latitude":"40.73924","longitude":"-74.00811","name":"Citi Bike - Washington St & Gansevoort St","capacity":"40","operator":"Citi Bike"}}]}
{"type":"FeatureCollection","features":[{"type":"Feature","geometry":{"type":"Point","coordinates":[-73.97645,40.76596]},"properties":{"address":"osm_3302657576","latitude":"40.76596","longitude":"-73.97645","name":"Citi Bike - Central Park South & 6th Avenue","capacity":"49","operator":"Citi Bike"}}]}
{"type":"FeatureCollection","features":[{"type":"Feature","geometry":{"type":"Point","coordinates":[-73.98304,40.74445]},"properties":{"address":"osm_3356089616","latitude":"40.74445","longitude":"-73.98304","name":"Citi Bike - East 30th Street & Park Avenue South","capacity":"38","operator":"Citi Bike"}}]}
{"type":"FeatureCollection","features":[{"type":"Feature","geometry":{"type":"Point","coordinates":[-73.99956,40.72356]},"properties":{"address":"osm_3573482112","latitude":"40.72356","longitude":"-73.99956","name":"Citi Bike - Mercer St & Spring St","capacity":"31","operator":"Citi Bike"}}]}
{"type":"FeatureCollection","features":[{"type":"Feature","geometry":{"type":"Point","coordinates":[-73.96905,40.75001]},"properties":{"address":"osm_3580600295","latitude":"40.75001","longitude":"-73.96905","name":"Citi Bike - 1st Avenue & East 44th Street","capacity":"39","operator":"Citi Bike"}}]}
{"type":"FeatureCollection","features":[{"type":"Feature","geometry":{"type":"Point","coordinates":[-74.01012,40.71288]},"properties":{"address":"osm_3586711273","latitude":"40.71288","longitude":"-74.01012","name":"Citi Bike - Barclay St & Church St","capacity":"23","operator":"Citi Bike"}}]}
{"type":"FeatureCollection","features":[{"type":"Feature","geometry":{"type":"Point","coordinates":[-73.99016,40.69595]},"properties":{"address":"osm_3586711274","latitude":"40.69595","longitude":"-73.99016","name":"Citi Bike - Cadman Plaza East & Tillary Street","capacity":"50","operator":"Citi Bike"}}]}
{"type":"FeatureCollection","features":[{"type":"Feature","geometry":{"type":"Point","coordinates":[-73.9872,40.69521]},"properties":{"address":"osm_3586711275","latitude":"40.69521","longitude":"-73.9872","name":"Citi Bike - Jay Street & Tech Place","capacity":"32","operator":"Citi Bike"}}]}
{"type":"FeatureCollection","features":[{"type":"Feature","geometry":{"type":"Point","coordinates":[-74.00736,40.70711]},