{"type":"FeatureCollection","features":[{"type":"Feature","geometry":{"type":"Point","coordinates":[-73.91076,40.76418]},"properties":{"address":"00284700-9d22-42ce-8485-113fed9879c1","latitude":"40.76418","longitude":"-73.91076","name":"Citi Bike - 28 Ave & 44 St","capacity":"19","operator":"Citi Bike"}}]}
{"type":"FeatureCollection","features":[{"type":"Feature","geometry":{"type":"Point","coordinates":[-73.89763,40.74447]},"properties":{"address":"00967b8f-1a4d-4131-a65a-17fa8ca89e28","latitude":"40.74447","longitude":"-73.89763","name":"Citi Bike - 41 Ave & 67 St","capacity":"20","operator":"Citi Bike"}}]}
{"type":"FeatureCollection","features":[{"type":"Feature","geometry":{"type":"Point","coordinates":[-73.98429,40.72477]},"properties":{"address":"0096fecb-3a56-4585-9204-aa9554f7bc49","latitude":"40.72477","longitude":"-73.98429","name":"Citi Bike - E 5 St & Ave A","capacity":"48","operator":"Citi Bike"}}]}
{"type":"FeatureCollection","features":[{"type":"Feature","geometry":{"type":"Point","coordinates":[-74.00093,40.73592]},"properties":{"address":"00d3e65e-b614-4408-aaa9-939ed96ce645","latitude":"40.73592","longitude":"-74.00093","name":"Citi Bike - Perry St & Greenwich Ave","capacity":"53","operator":"Citi Bike"}}]}
{"type":"FeatureCollection","features":[{"type":"Feature","geometry":{"type":"Point","coordinates":[-73.94149,40.67559]},"properties":{"address":"00d94dfc-3695-47e1-aba6-7f319dd2eb08","latitude":"40.67559","longitude":"-73.94149","name":"Citi Bike - Bergen St & Kingston Ave","capacity":"22","operator":"Citi Bike"}}]}
{"type":"FeatureCollection","features":[{"type":"Feature","geometry":{"type":"Point","coordinates":[-73.98468,40.67977]},"properties":{"address":"0109f17a-2378-4500-9648-88bdb31ec612","latitude":"40.67977","longitude":"-73.98468","name":"Citi Bike - Degraw St & 3 Ave","capacity":"35","operator":"Citi Bike"}}]}
{"type":"FeatureCollection","features":[{"type":"Feature","geometry":{"type":"Point","coordinates":[-73.96412,40.75628]},"properties":{"address":"0138452a-b9f4-4aee-80b0-7fae9a122ffe","latitude":"40.75628","longitude":"-73.96412","name":"Citi Bike - E 54 St & 1 Ave","capacity":"41","operator":"Citi Bike"}}]}
{"type":"FeatureCollection","features":[{"type":"Feature","geometry":{"type":"Point","coordinates":[-74.00123,40.70744]},"properties":{"address":"014a931b-8e1c-438a-8a22-f267ddd1e0d2","latitude":"40.70744","longitude":"-74.00123","name":"Citi Bike - Peck Slip & South St","capacity":"45","operator":"Citi Bike"}}]}
{"type":"FeatureCollection","features":[{"type":"Feature","geometry":{"type":"Point","coordinates":[-73.89355,40.69716]},"properties":{"address":"016ee47a-4871-4209-91cb-bf3ceeddc991","latitude":"40.69716","longitude":"-73.89355","name":"Citi Bike - St Felix Ave & 61 St","capacity":"19","operator":"Citi Bike"}}]}
{"type":"FeatureCollection","features":[{"type":"Feature","geometry":{"type":"Point","coordinates":[-73.94521,40.81355]},"properties":{"address":"01839a78-f228-4706-8f7f-147b857492f2","latitude":"40.81355","longitude":"-73.94521","name":"Citi Bike - Adam Clayton Powell Blvd & W 132 St","capacity":"23","operator":"Citi Bike"}}]}
{"type":"FeatureCollection","features":[{"type":"Feature","geometry":{"type":"Point","coordinates":[-73.93709,40.82929]},"properties":{"address":"0183d7d4-9e11-4429-94db-666a31239871","latitude":"40.82929","longitude":"-73.93709","name":"Citi Bike - W 155 St & Frederick Douglass Blvd","capacity":"31","operator":"Citi Bike"}}]}
{"type":"FeatureCollection","features":[{"type":"Feature","geometry":{"type":"Point","coordinates":[-73.90371,40.82821]},"properties":{"address":"0197e9da-ae03-40a7-8270-fe500bfc9e18","latitude":"40.82821","longitude":"-73.90371","name":"Citi Bike - Boston Rd & E 167 St","capacity":"21","operator":"Citi Bike"}}]}
{"type":"FeatureCollection","features":[{"type":"Feature","geometry":{"type":"Point","coordinates":[-73.95582,40.82319]},"properties":{"address":"01a1343d-9c7b-4a83-8a5a-a600187f19c4","latitude":"40.82319","longitude":"-73.95582","name":"Citi Bike - Riverside Dr & W 138 St","capacity":"30","operator":"Citi Bike"}}]}
{"type":"FeatureCollection","features":[{"type":"Feature","geometry":{"type":"Point","coordinates":[-73.92601,40.68377]},"properties":{"address":"01b7973e-c92e-4fbe-890e-2c24de33ce0e","latitude":"40.68377","longitude":"-73.92601","name":"Citi Bike - Macon St & Patchen Ave","capacity":"19","operator":"Citi Bike"}}]}
{"type":"FeatureCollection","features":[{"type":"Feature","geometry":{"type":"Point","coordinates":[-73.97993,40.68258]},"properties":{"address":"01f01352-50d4-484e-a611-576b18ac373a","latitude":"40.68258","longitude":"-73.97993","name":"Citi Bike - Bergen St & 4 Ave","capacity":"34","operator":"Citi Bike"}}]}
{"type":"FeatureCollection","features":[{"type":"Feature","geometry":{"type":"Point","coordinates":[-73.93784,40.8122]},"properties":{"address":"023127f2-a6e0-4fae-ba34-178acccb993e","latitude":"40.8122","longitude":"-73.93784","name":"Citi Bike - 5 Ave & E 135 St","capacity":"21","operator":"Citi Bike"}}]}
{"type":"FeatureCollection","features":[{"type":"Feature","geometry":{"type":"Point","coordinates":[-73.9164,40.85178]},"properties":{"address":"023cf549-bd85-4f9a-abd8-70ba29d7e86b","latitude":"40.85178","longitude":"-73.9164","name":"Citi Bike - W Tremont Ave & Montgomery Ave","capacity":"21","operator":"Citi Bike"}}]}
{"type":"FeatureCollection","features":[{"type":"Feature","geometry":{"type":"Point","coordinates":[-73.9609,40.6613]},"properties":{"address":"0258da92-f770-4acc-b20b-91b78aff791e","latitude":"40.6613","longitude":"-73.9609","name":"Citi Bike - Flatbush Ave & Lincoln Rd","capacity":"23","operator":"Citi Bike"}}]}
{"type":"FeatureCollection","features":[{"type":"Feature","geometry":{"type":"Point","coordinates":[-73.90857,40.67381]},"properties":{"address":"026fd07d-d810-45dc-9237-a3d84dce4fa9","latitude":"40.67381","longitude":"-73.90857","name":"Citi Bike - Bergen St & Mother Gaston Blvd","capacity":"24","operator":"Citi Bike"}}]}
{"type":"FeatureCollection","features":[{"type":"Feature","geometry":{"type":"Point","coordinates":[-73.92918,40.74717]},"properties":{"address":"034f7f3d-e632-475a-aa01-894480d153df","latitude":"40.74717","longitude":"-73.92918","name":"Citi Bike - Skillman Ave & Honeywell St","capacity":"19","operator":"Citi Bike"}}]}
{"type":"FeatureCollection","features":[{"type":"Feature","geometry":{"type":"Point","coordinates":[-73.92199,40.67372]},"properties":{"address":"03872f6b-a522-4c41-a4f2-5d0c41779e7b","latitude":"40.67372","longitude":"-73.92199","name":"Citi Bike - St Marks Ave & Ralph Ave","capacity":"19","operator":"Citi Bike"}}]}
{"type":"FeatureCollection","features":[{"type":"Feature","geometry":{"type":"Point","coordinates":[-73.90079,40.67709]},"properties":{"address":"038b7369-9c6e-4eb2-8569-f7461443302f","latitude":"40.67709","longitude":"-73.90079","name":"Citi Bike - Fulton St & Williams Ave","capacity":"21","operator":"Citi Bike"}}]}
{"type":"FeatureCollection","features":[{"type":"Feature","geometry":{"type":"Point","coordinates":[-73.90871,40.82388]},"properties":{"address":"039d4cc9-8560-4d22-88c3-20753c54a50f","latitude":"40.82388","longitude":"-73.90871","name":"Citi Bike - 3 Ave & E 163 St","capacity":"27","operator":"Citi Bike"}}]}
{"type":"FeatureCollection","features":[{"type":"Feature","geometry":{"type":"Point","coordinates":[-73.89193,40.87812]},"properties":{"address":"04d557d6-6bc3-4244-b0f1-81ed1449ccd6","latitude":"40.87812","longitude":"-73.89193","name":"Citi Bike - Goulden Ave & W 205 St","capacity":"19","operator":"Citi Bike"}}]}
{"type":"FeatureCollection","features":[{"type":"Feature","geometry":{"type":"Point","coordinates":[-73.98656,40.76179]},"properties":{"address":"053312f2-e77e-4674-b28b-ad357fbcb4ee","latitude":"40.76179","longitude":"-73.98656","name":"Citi Bike - 8 Ave & W 49 St","capacity":"65","operator":"Citi Bike"}}]}
{"type":"FeatureCollection","features":[{"type":"Feature","geometry":{"type":"Point","coordinates":[-73.93642,40.70076]},"properties":{"address":"0575e356-72f4-4251-8e15-574cf60bd190","latitude":"40.70076","longitude":"-73.93642","name":"Citi Bike - Bushwick Ave & Forrest St","capacity":"20","operator":"Citi Bike"}}]}
{"type":"FeatureCollection","features":[{"type":"Feature","geometry":{"type":"Point","coordinates":[-73.94102,40.83232]},"properties":{"address":"058ee86d-ce2a-4597-99f7-f78f082b33e3","latitude":"40.83232","longitude":"-73.94102","name":"Citi Bike - St Nicholas Ave & W 157 St","capacity":"20","operator":"Citi Bike"}}]}
{"type":"FeatureCollection","features":[{"type":"Feature","geometry":{"type":"Point","coordinates":[-73.90184,40.82252]},"properties":{"address":"05969d95-8a64-4007-abf1-afb847f2d426","latitude":"40.82252","longitude":"-73.90184","name":"Citi Bike - E 163 St & Union Ave","capacity":"24","operator":"Citi Bike"}}]}
{"type":"FeatureCollection","features":[{"type":"Feature","geometry":{"type":"Point","coordinates":[-73.9089,40.75416]},"properties":{"address":"05b9e7cd-f3a2-4d48-b7c4-f5fbe09d9de3","latitude":"40.75416","longitude":"-73.9089","name":"Citi Bike - Broadway & 51 St","capacity":"27","operator":"Citi Bike"}}]}
{"type":"FeatureCollection","features":[{"type":"Feature","geometry":{"type":"Point","coordinates":[-73.99609,40.75413]},"properties":{"address":"05c5e17c-7aa9-49b7-9da3-9db4858ec1fc","latitude":"40.75413","longitude":"-73.99609","name":"Citi Bike - W 35 St & 9 Ave","capacity":"32","operator":"Citi Bike"}}]}
{"type":"FeatureCollection","features":[{"type":"Feature","geometry":{"type":"Point","coordinates":[-73.91049,40.8376]},"properties":{"address":"05d03a63-b5f2-40d9-9a3d-d2fe666a307f","latitude":"40.8376","longitude":"-73.91049","name":"Citi Bike - College Ave & E 170 St","capacity":"24","operator":"Citi Bike"}}]}
{"type":"FeatureCollection","features":[{"type":"Feature","geometry":{"type":"Point","coordinates":[-73.98676,40.74265]},"properties":{"address":"06109e92-4363-445a-9743-0457f6799530","latitude":"40.74265","longitude":"-73.98676","name":"Citi Bike - Madison Ave & E 26 St","capacity":"75","operator":"Citi Bike"}}]}
{"type":"FeatureCollection","features":[{"type":"Feature","geometry":{"type":"Point","coordinates":[-73.91475,40.81717]},"properties":{"address":"062f0ac2-b3b6-4c15-b470-92ce9b592635","latitude":"40.81717","longitude":"-73.91475","name":"Citi Bike - Bergen Ave & E 152 St","capacity":"21","operator":"Citi Bike"}}]}
{"type":"FeatureCollection","features":[{"type":"Feature","geometry":{"type":"Point","coordinates":[-73.89282,40.74288]},"properties":{"address":"062ffe5a-aa91-412d-8210-23d562c7e7f8","latitude":"40.74288","longitude":"-73.89282","name":"Citi Bike - 72 St & Woodside Ave","capacity":"19","operator":"Citi Bike"}}]}
{"type":"FeatureCollection","features":[{"type":"Feature","geometry":{"type":"Point","coordinates":[-73.91208,40.77016]},"properties":{"address":"0630217a-3913-47d9-9540-cf85688296a5","latitude":"40.77016","longitude":"-73.91208","name":"Citi Bike - 37 St & 24 Ave","capacity":"19","operator":"Citi Bike"}}]}
{"type":"FeatureCollection","features":[{"type":"Feature","geometry":{"type":"Point","coordinates":[-73.99069,40.71733]},"properties":{"address":"063e7e78-b810-4a2f-8045-a82a0d69d752","latitude":"40.71733","longitude":"-73.99069","name":"Citi Bike - Orchard St & Grand St","capacity":"45","operator":"Citi Bike"}}]}
{"type":"FeatureCollection","features":[{"type":"Feature","geometry":{"type":"Point","coordinates":[-74.01052,40.71224]},"properties":{"address":"06439006-11b6-44f0-8545-c9d39035f32a","latitude":"40.71224","longitude":"-74.01052","name":"Citi Bike - Vesey St & Church St","capacity":"78","operator":"Citi Bike"}}]}
{"type":"FeatureCollection","features":[{"type":"Feature","geometry":{"type":"Point","coordinates":[-73.92662,40.74217]},"properties":{"address":"067b53bd-33bf-4698-8103-3931a5f32a37","latitude":"40.74217","longitude":"-73.92662","name":"Citi Bike - 39 St & 47 Ave","capacity":"19","operator":"Citi Bike"}}]}
{"type":"FeatureCollection","features":[{"type":"Feature","geometry":{"type":"Point","coordinates":[-73.93651,40.75636]},"properties":{"address":"067d5007-bda5-4697-b0a2-ccc2837f295c","latitude":"40.75636","longitude":"-73.93651","name":"Citi Bike - 24 St & 38 Ave","capacity":"19","operator":"Citi Bike"}}]}
{"type":"FeatureCollection","features":[{"type":"Feature","geometry":{"type":"Point","coordinates":[-73.94859,40.75522]},"properties":{"address":"0687075b-cf2d-4130-a859-fe841aafbd3f","latitude":"40.75522","longitude":"-73.94859","name":"Citi Bike - Vernon Blvd & 41 Rd","capacity":"27","operator":"Citi Bike"}}]}
{"type":"FeatureCollection","features":[{"type":"Feature","geometry":{"type":"Point","coordinates":[-73.89513,40.8353]},"properties":{"address":"068b919c-f649-4091-8e12-ccf37191cad5","latitude":"40.8353","longitude":"-73.89513","name":"Citi Bike - Wilkins Ave & Crotona Park E","capacity":"19","operator":"Citi Bike"}}]}
{"type":"FeatureCollection","features":[{"type":"Feature","geometry":{"type":"Point","coordinates":[-73.90848,40.71791]},"properties":{"address":"06e5447e-35b8-45cb-b3bb-937791a6f8ae","latitude":"40.71791","longitude":"-73.90848","name":"Citi Bike - 59 St & 59 Rd","capacity":"21","operator":"Citi Bike"}}]}
{"type":"FeatureCollection","features":[{"type":"Feature","geometry":{"type":"Point","coordinates":[-73.90469,40.76451]},"properties":{"address":"06f0d251-e1e3-435c-8c5f-9b991a14ca4a","latitude":"40.76451","longitude":"-73.90469","name":"Citi Bike - 49 St & 25 Ave","capacity":"25","operator":"Citi Bike"}}]}
{"type":"FeatureCollection","features":[{"type":"Feature","geometry":{"type":"Point","coordinates":[-73.91953,40.68159]},"properties":{"address":"079b5a90-1d2b-40b2-b1e9-71c075f16b89","latitude":"40.68159","longitude":"-73.91953","name":"Citi Bike - Chauncey St & Howard Ave","capacity":"21","operator":"Citi Bike"}}]}
{"type":"FeatureCollection","features":[{"type":"Feature","geometry":{"type":"Point","coordinates":[-73.93649,40.68994]},"properties":{"address":"081d243e-d75e-4e2a-bdae-a990b2397532","latitude":"40.68994","longitude":"-73.93649","name":"Citi Bike - Lewis Ave & Greene Ave","capacity":"23","operator":"Citi Bike"}}]}
{"type":"FeatureCollection","features":[{"type":"Feature","geometry":{"type":"Point","coordinates":[-73.91977,40.67261]},"properties":{"address":"085da8d4-9465-46f0-82d1-10c9c9177d64","latitude":"40.67261","longitude":"-73.91977","name":"Citi Bike - Prospect Pl & Howard Ave","capacity":"19","operator":"Citi Bike"}}]}
{"type":"FeatureCollection","features":[{"type":"Feature","geometry":{"type":"Point","coordinates":[-73.9333,40.84731]},"properties":{"address":"08b9c491-a589-4e75-996c-2455c26fb356","latitude":"40.84731","longitude":"-73.9333","name":"Citi Bike - Audubon Ave & W 179 St","capacity":"23","operator":"Citi Bike"}}]}
{"type":"FeatureCollection","features":[{"type":"Feature","geometry":{"type":"Point","coordinates":[-73.91366,40.76565]},"properties":{"address":"08bf2fe0-219d-48cd-87c5-6163b3a2eafd","latitude":"40.76565","longitude":"-73.91366","name":"Citi Bike - Steinway St & 28 Ave","capacity":"25","operator":"Citi Bike"}}]}
{"type":"FeatureCollection","features":[{"type":"Feature","geometry":{"type":"Point","coordinates":[-73.93088,40.77397]},"properties":{"address":"0927e331-866f-4d99-99b4-04edde99117a","latitude":"40.77397","longitude":"-73.93088","name":"Citi Bike - 27 Ave & 9 St","capacity":"40","operator":"Citi Bike"}}]}
{"type":"FeatureCollection","features":[{"type":"Feature","geometry":{"type":"Point","coordinates":[-73.9247,40.82343]},"properties":{"address":"09a0c507-7cda-4f3f-9988-78de0baa28e4","latitude":"40.82343","longitude":"-73.9247","name":"Citi Bike - Grand Concourse & E 156 St","capacity":"21","operator":"Citi Bike"}}]}
{"type":"FeatureCollection","features":[{"type":"Feature","geometry":{"type":"Point","coordinates":[-73.93537,40.74021]},"properties":{"address":"09b00240-4c2a-4900-9d09-f13344461c02","latitude":"40.74021","longitude":"-73.93537","name":"Citi Bike - 31 Pl & Hunters Point Ave","capacity":"19","operator":"Citi Bike"}}]}
{"type":"FeatureCollection","features":[{"type":"Feature","geometry":{"type":"Point","coordinates":[-73.99648,40.73806]},"properties":{"address":"09dfc0e3-a448-477c-bb3c-9467dc51ef8d","latitude":"40.73806","longitude":"-73.99648","name":"Citi Bike - W 15 St & 6 Ave","capacity":"75","operator":"Citi Bike"}}]}
{"type":"FeatureCollection","features":[{"type":"Feature","geometry":{"type":"Point","coordinates":[-73.93825,40.79233]},"properties":{"address":"0b613329-b8c8-4b8c-ad40-79952aa41157","latitude":"40.79233","longitude":"-73.93825","name":"Citi Bike - 1 Ave & E 110 St","capacity":"25","operator":"Citi Bike"}}]}
{"type":"FeatureCollection","features":[{"type":"Feature","geometry":{"type":"Point","coordinates":[-74.01575,40.64012]},"properties":{"address":"0b857ee5-3d10-4152-952e-95fbaf06677a","latitude":"40.64012","longitude":"-74.01575","name":"Citi Bike - 59 St & 5 Ave","capacity":"30","operator":"Citi Bike"}}]}
{"type":"FeatureCollection","features":[{"type":"Feature","geometry":{"type":"Point","coordinates":[-73.93794,40.82641]},"properties":{"address":"0b94cc1e-2327-4679-99d9-3b21ddc02051","latitude":"40.82641","longitude":"-73.93794","name":"Citi Bike - Macombs Pl & W 152 St","capacity":"33","operator":"Citi Bike"}}]}
{"type":"FeatureCollection","features":[{"type":"Feature","geometry":{"type":"Point","coordinates":[-74.02778,40.73698]},"properties":{"address":"0bb12c94-efdb-40ac-98fe-9521ba373b57","latitude":"40.73698","longitude":"-74.02778","name":"Citi Bike - South Waterfront Walkway - Sinatra Dr & 1 St","capacity":"30","operator":"Citi Bike"}}]}
{"type":"FeatureCollection","features":[{"type":"Feature","geometry":{"type":"Point","coordinates":[-74.01379,40.63822]},"properties":{"address":"0bd9bd58-42e6-4680-9d19-83943372221f","latitude":"40.63822","longitude":"-74.01379","name":"Citi Bike - 6 Ave & 60 St","capacity":"22","operator":"Citi Bike"}}]}
{"type":"FeatureCollection","features":[{"type":"Feature","geometry":{"type":"Point","coordinates":[-74.00523,40.74005]},"properties":{"address":"0c923abb-298a-4a47-b132-9fae73cc59e6","latitude":"40.74005","longitude":"-74.00523","name":"Citi Bike - Hudson St & W 13 St","capacity":"42","operator":"Citi Bike"}}]}
{"type":"FeatureCollection","features":[{"type":"Feature","geometry":{"type":"Point","coordinates":[-73.9605,40.65799]},"properties":{"address":"0cb63737-64c9-42a9-9479-280d49ed015a","latitude":"40.65799","longitude":"-73.9605","name":"Citi Bike - Flatbush Ave & Fenimore St","capacity":"24","operator":"Citi Bike"}}]}
{"type":"FeatureCollection","features":[{"type":"Feature","geometry":{"type":"Point","coordinates":[-73.98301,40.66092]},"properties":{"address":"0cc38ba1-4625-4821-9a6f-e490525cbce2","latitude":"40.66092","longitude":"-73.98301","name":"Citi Bike - Windsor Pl & 8 Ave","capacity":"20","operator":"Citi Bike"}}]}
{"type":"FeatureCollection","features":[{"type":"Feature","geometry":{"type":"Point","coordinates":[-73.9091,40.74192]},"properties":{"address":"0cde9bcd-0dcb-45dc-9c9a-3e5485b5452e","latitude":"40.74192","longitude":"-73.9091","name":"Citi Bike - Queens Blvd & 56 St","capacity":"20","operator":"Citi Bike"}}]}
{"type":"FeatureCollection","features":[{"type":"Feature","geometry":{"type":"Point","coordinates":[-73.974,40.73061]},"properties":{"address":"0dc63044-e19c-474d-9df1-c3e504d03b07","latitude":"40.73061","longitude":"-73.974","name":"Citi Bike - Ave C & E 16 St","capacity":"48","operator":"Citi Bike"}}]}
{"type":"FeatureCollection","features":[{"type":"Feature","geometry":{"type":"Point","coordinates":[-73.91387,40.67314]},"properties":{"address":"0dd71c6d-11ee-4ad4-ba99-36b9ad36112c","latitude":"40.67314","longitude":"-73.91387","name":"Citi Bike - St Marks Ave & Thomas S. Boyland St","capacity":"21","operator":"Citi Bike"}}]}
{"type":"FeatureCollection","features":[{"type":"Feature","geometry":{"type":"Point","coordinates":[-73.94387,40.8235]},"properties":{"address":"0ddb965d-95ef-4ce3-bde6-81a56ac1fbd2","latitude":"40.8235","longitude":"-73.94387","name":"Citi Bike - Edgecombe Ave & W 145 St","capacity":"31","operator":"Citi Bike"}}]}
{"type":"FeatureCollection","features":[{"type":"Feature","geometry":{"type":"Point","coordinates":[-73.91816,40.76552]},"properties":{"address":"0de1f95f-8b1b-4e5e-9eff-73c63265b0ab","latitude":"40.76552","longitude":"-73.91816","name":"Citi Bike - 35 St & 30 Ave","capacity":"29","operator":"Citi Bike"}}]}
{"type":"FeatureCollection","features":[{"type":"Feature","geometry":{"type":"Point","coordinates":[-73.93132,40.85226]},"properties":{"address":"0df3a035-5a38-4ec2-826a-0a5376e8d8a0","latitude":"40.85226","longitude":"-73.93132","name":"Citi Bike - W 186 St & St Nicholas Ave","capacity":"26","operator":"Citi Bike"}}]}
{"type":"FeatureCollection","features":[{"type":"Feature","geometry":{"type":"Point","coordinates":[-73.9523,40.79879]},"properties":{"address":"0e003543-3656-448f-8a93-029d265f2e26","latitude":"40.79879","longitude":"-73.9523","name":"Citi Bike - Lenox Ave & W 111 St","capacity":"36","operator":"Citi Bike"}}]}
{"type":"FeatureCollection","features":[{"type":"Feature","geometry":{"type":"Point","coordinates":[-73.95043,40.65951]},"properties":{"address":"0e240143-2f86-4754-8345-4994750d99f1","latitude":"40.65951","longitude":"-73.95043","name":"Citi Bike - Nostrand Ave & Rutland Rd","capacity":"20","operator":"Citi Bike"}}]}
{"type":"FeatureCollection","features":[{"type":"Feature","geometry":{"type":"Point","coordinates":[-73.95916,40.7225]},"properties":{"address":"0e3dedfb-df10-4900-a67b-95349a81bc5c","latitude":"40.7225","longitude":"-73.95916","name":"Citi Bike - N 11 St & Kent Ave","capacity":"27","operator":"Citi Bike"}}]}
{"type":"FeatureCollection","features":[{"type":"Feature","geometry":{"type":"Point","coordinates":[-73.92082,40.76315]},"properties":{"address":"0e5be726-2452-42a0-9be8-ea85c8408e4c","latitude":"40.76315","longitude":"-73.92082","name":"Citi Bike - 31 Ave & 34 St","capacity":"23","operator":"Citi Bike"}}]}
{"type":"FeatureCollection","features":[{"type":"Feature","geometry":{"type":"Point","coordinates":[-73.92082,40.86322]},"properties":{"address":"0e82ab9f-8c93-4302-b9df-342f8135a05c","latitude":"40.86322","longitude":"-73.92082","name":"Citi Bike - W 204 St & Nagle Ave","capacity":"20","operator":"Citi Bike"}}]}
{"type":"FeatureCollection","features":[{"type":"Feature","geometry":{"type":"Point","coordinates":[-73.93377,40.6716]},"properties":{"address":"0e8bfd72-c494-4d3e-85e2-4f98b801fe3b","latitude":"40.6716","longitude":"-73.93377","name":"Citi Bike - Sterling Pl & Schenectady Ave","capacity":"21","operator":"Citi Bike"}}]}
{"type":"FeatureCollection","features":[{"type":"Feature","geometry":{"type":"Point","coordinates":[-73.99247,40.6662]},"properties":{"address":"0eacb768-c7d5-4499-9182-9a1331d9280c","latitude":"40.6662","longitude":"-73.99247","name":"Citi Bike - 16 St & 4 Ave","capacity":"30","operator":"Citi Bike"}}]}
{"type":"FeatureCollection","features":[{"type":"Feature","geometry":{"type":"Point","coordinates":[-73.90975,40.69387]},"properties":{"address":"0ebdda6a-37e4-4ff4-94e8-3947f49d8e24","latitude":"40.69387","longitude":"-73.90975","name":"Citi Bike - Knickerbocker Ave & Hancock St","capacity":"22","operator":"Citi Bike"}}]}
{"type":"FeatureCollection","features":[{"type":"Feature","geometry":{"type":"Point","coordinates":[-74.00114,40.65775]},"properties":{"address":"0efa08a3-1c38-48fe-ab37-8c9b72b20126","latitude":"40.65775","longitude":"-74.00114","name":"Citi Bike - 30 St & 4 Ave","capacity":"19","operator":"Citi Bike"}}]}
{"type":"FeatureCollection","features":[{"type":"Feature","geometry":{"type":"Point","coordinates":[-73.99015,40.73255]},"properties":{"address":"0f45bcf6-7028-4584-a51e-4129847dbebc","latitude":"40.73255","longitude":"-73.99015","name":"Citi Bike - 4 Ave & E 12 St","capacity":"39","operator":"Citi Bike"}}]}
{"type":"FeatureCollection","features":[{"type":"Feature","geometry":{"type":"Point","coordinates":[-73.94898,40.79751]},"properties":{"address":"0f51cb84-e386-44ac-947f-a969f7617d17","latitude":"40.79751","longitude":"-73.94898","name":"Citi Bike - W 111 St & 5 Ave","capacity":"24","operator":"Citi Bike"}}]}
{"type":"FeatureCollection","features":[{"type":"Feature","geometry":{"type":"Point","coordinates":[-73.9224,40.83174]},"properties":{"address":"0f536c08-dde3-40af-a66d-1fe1e7edecd2","latitude":"40.83174","longitude":"-73.9224","name":"Citi Bike - Gerard Ave & E 165 St","capacity":"21","operator":"Citi Bike"}}]}
{"type":"FeatureCollection","features":[{"type":"Feature","geometry":{"type":"Point","coordinates":[-73.95465,40.80516]},"properties":{"address":"0f6fd186-656a-41b3-ba4a-456d22da177c","latitude":"40.80516","longitude":"-73.95465","name":"Citi Bike - Frederick Douglass Blvd & W 117 St","capacity":"39","operator":"Citi Bike"}}]}
{"type":"FeatureCollection","features":[{"type":"Feature","geometry":{"type":"Point","coordinates":[-73.89587,40.74279]},"properties":{"address":"0f9423bd-98dd-4919-b6e3-28880ff7ecca","latitude":"40.74279","longitude":"-73.89587","name":"Citi Bike - Woodside Ave & 69 St","capacity":"19","operator":"Citi Bike"}}]}
{"type":"FeatureCollection","features":[{"type":"Feature","geometry":{"type":"Point","coordinates":[-73.91898,40.75912]},"properties":{"address":"0f98907a-d4cc-45e0-b174-7d9dfda74106","latitude":"40.75912","longitude":"-73.91898","name":"Citi Bike - Steinway St & Broadway","capacity":"32","operator":"Citi Bike"}}]}
{"type":"FeatureCollection","features":[{"type":"Feature","geometry":{"type":"Point","coordinates":[-73.93424,40.76279]},"properties":{"address":"0fa27bd7-b182-4e7a-b5bb-90f4249cb368","latitude":"40.76279","longitude":"-73.93424","name":"Citi Bike - 34 Ave & 21 St","capacity":"23","operator":"Citi Bike"}}]}
{"type":"FeatureCollection","features":[{"type":"Feature","geometry":{"type":"Point","coordinates":[-73.93663,40.76397]},"properties":{"address":"0fa27bd7-b182-4e7a-b5bb-90f4249cb368","latitude":"40.76397","longitude":"-73.93663","name":"Citi Bike - 34 Ave & 21 St","capacity":"23","operator":"Citi Bike"}}]}
{"type":"FeatureCollection","features":[{"type":"Feature","geometry":{"type":"Point","coordinates":[-73.98728,40.75321]},"properties":{"address":"0fde06c2-632c-46a9-8866-f4e855604f74","latitude":"40.75321","longitude":"-73.98728","name":"Citi Bike - Broadway & W 38 St","capacity":"68","operator":"Citi Bike"}}]}
{"type":"FeatureCollection","features":[{"type":"Feature","geometry":{"type":"Point","coordinates":[-73.91398,40.67566]},"properties":{"address":"101c813e-02a8-4b6b-bd5d-981c1ea62019","latitude":"40.67566","longitude":"-73.91398","name":"Citi Bike - Pacific St & Thomas S. Boyland St","capacity":"21","operator":"Citi Bike"}}]}
{"type":"FeatureCollection","features":[{"type":"Feature","geometry":{"type":"Point","coordinates":[-73.90737,40.70413]},"properties":{"address":"1057229c-f8f8-4014-80cd-f40421c61cf0","latitude":"40.70413","longitude":"-73.90737","name":"Citi Bike - Onderdonk Ave & Gates Ave","capacity":"19","operator":"Citi Bike"}}]}
{"type":"FeatureCollection","features":[{"type":"Feature","geometry":{"type":"Point","coordinates":[-73.93925,40.82089]},"properties":{"address":"1064b4b0-e9c8-4139-ac48-f118305dbe69","latitude":"40.82089","longitude":"-73.93925","name":"Citi Bike - W 144 St & Adam Clayton Powell Blvd","capacity":"24","operator":"Citi Bike"}}]}
{"type":"FeatureCollection","features":[{"type":"Feature","geometry":{"type":"Point","coordinates":[-73.88459,40.87206]},"properties":{"address":"1096fc76-794e-4343-8eb0-0dd6c9a48266","latitude":"40.87206","longitude":"-73.88459","name":"Citi Bike - E 201 St & Briggs Ave","capacity":"19","operator":"Citi Bike"}}]}
{"type":"FeatureCollection","features":[{"type":"Feature","geometry":{"type":"Point","coordinates":[-73.92366,40.81273]},"properties":{"address":"10c13fe2-34cb-4aff-bea1-4f5ce877769b","latitude":"40.81273","longitude":"-73.92366","name":"Citi Bike - E 142 St & 3 Ave","capacity":"19","operator":"Citi Bike"}}]}
{"type":"FeatureCollection","features":[{"type":"Feature","geometry":{"type":"Point","coordinates":[-74.00818,40.74195]},"properties":{"address":"116dbc02-a3c1-4b65-9f73-2a09a2aa1379","latitude":"40.74195","longitude":"-74.00818","name":"Citi Bike - 10 Ave & W 14 St","capacity":"81","operator":"Citi Bike"}}]}
{"type":"FeatureCollection","features":[{"type":"Feature","geometry":{"type":"Point","coordinates":[-73.98096,40.76413]},"properties":{"address":"1198e739-787c-4ce4-aa63-ffaf98506e9c","latitude":"40.76413","longitude":"-73.98096","name":"Citi Bike - 7 Ave & W 55 St","capacity":"67","operator":"Citi Bike"}}]}
{"type":"FeatureCollection","features":[{"type":"Feature","geometry":{"type":"Point","coordinates":[-73.92736,40.81082]},"properties":{"address":"11a8d465-b4eb-466b-a6ca-055f73994231","latitude":"40.81082","longitude":"-73.92736","name":"Citi Bike - Lincoln Ave & E 138 St","capacity":"26","operator":"Citi Bike"}}]}
{"type":"FeatureCollection","features":[{"type":"Feature","geometry":{"type":"Point","coordinates":[-73.91236,40.71922]},"properties":{"address":"1202a491-9f76-4609-9b5c-eb7723ab5b45","latitude":"40.71922","longitude":"-73.91236","name":"Citi Bike - 57 St & Grand Ave","capacity":"19","operator":"Citi Bike"}}]}
{"type":"FeatureCollection","features":[{"type":"Feature","geometry":{"type":"Point","coordinates":[-73.92797,40.75312]},"properties":{"address":"12279d2b-29f6-4e02-a7f0-244970f7edd5","latitude":"40.75312","longitude":"-73.92797","name":"Citi Bike - 37 Ave & 35 St","capacity":"26","operator":"Citi Bike"}}]}
{"type":"FeatureCollection","features":[{"type":"Feature","geometry":{"type":"Point","coordinates":[-74.01242,40.71503]},"properties":{"address":"1286480d-5d6d-4a47-9fac-e156dba2b6fc","latitude":"40.71503","longitude":"-74.01242","name":"Citi Bike - Murray St & West St","capacity":"61","operator":"Citi Bike"}}]}
{"type":"FeatureCollection","features":[{"type":"Feature","geometry":{"type":"Point","coordinates":[-73.90674,40.69721]},"properties":{"address":"1318e05a-2506-43c6-b49d-4c1f7f69a267","latitude":"40.69721","longitude":"-73.90674","name":"Citi Bike - Hancock St & Wyckoff Ave","capacity":"19","operator":"Citi Bike"}}]}
{"type":"FeatureCollection","features":[{"type":"Feature","geometry":{"type":"Point","coordinates":[-73.95148,40.80438]},"properties":{"address":"138094a0-cd7d-4014-9b21-4fb2afd3980e","latitude":"40.80438","longitude":"-73.95148","name":"Citi Bike - Adam Clayton Powell Blvd & W 118 St","capacity":"27","operator":"Citi Bike"}}]}
{"type":"FeatureCollection","features":[{"type":"Feature","geometry":{"type":"Point","coordinates":[-73.92892,40.82223]},"properties":{"address":"141eb0e0-e78d-411a-a0be-202a6424cc93","latitude":"40.82223","longitude":"-73.92892","name":"Citi Bike - River Ave & E 151 St","capacity":"27","operator":"Citi Bike"}}]}
{"type":"FeatureCollection","features":[{"type":"Feature","geometry":{"type":"Point","coordinates":[-73.91135,40.84741]},"properties":{"address":"1431ec5c-242d-401b-b672-dbf95155999b","latitude":"40.84741","longitude":"-73.91135","name":"Citi Bike - Townsend Ave & E 175 St","capacity":"19","operator":"Citi Bike"}}]}
{"type":"FeatureCollection","features":[{"type":"Feature","geometry":{"type":"Point","coordinates":[-73.95359,40.77095]},"properties":{"address":"14391923-6727-4359-92e9-03e0b5094753","latitude":"40.77095","longitude":"-73.95359","name":"Citi Bike - E 77 St & 1 Ave","capacity":"52","operator":"Citi Bike"}}]}
{"type":"FeatureCollection","features":[{"type":"Feature","geometry":{"type":"Point","coordinates":[-73.92377,40.70201]},"properties":{"address":"145bbc0d-8976-45ae-9565-158ba564d3d1","latitude":"40.70201","longitude":"-73.92377","name":"Citi Bike - Suydam St & Knickerbocker Ave","capacity":"27","operator":"Citi Bike"}}]}
{"type":"FeatureCollection","features":[{"type":"Feature","geometry":{"type":"Point","coordinates":[-73.94308,40.81082]},"properties":{"address":"14f928c6-9a51-40a2-b7e6-a74e8b351dbf","latitude":"40.81082","longitude":"-73.94308","name":"Citi Bike - Lenox Ave & W 130 St","capacity":"25","operator":"Citi Bike"}}]}
{"type":"FeatureCollection","features":[{"type":"Feature","geometry":{"type":"Point","coordinates":[-73.9152,40.86931]},"properties":{"address":"158e7752-27e2-4912-be0b-eb15405aa096","latitude":"40.86931","longitude":"-73.9152","name":"Citi Bike - 10 Ave & W 215 St","capacity":"21","operator":"Citi Bike"}}]}
{"type":"FeatureCollection","features":[{"type":"Feature","geometry":{"type":"Point","coordinates":[-73.93354,40.68973]},"properties":{"address":"1597ea95-0b6b-425a-8d13-ed86ee0754b5","latitude":"40.68973","longitude":"-73.93354","name":"Citi Bike - Lexington Ave & Stuyvesant Ave","capacity":"20","operator":"Citi Bike"}}]}
{"type":"FeatureCollection","features":[{"type":"Feature","geometry":{"type":"Point","coordinates":[-73.91075,40.85011]},"properties":{"address":"15cb007b-bfca-4ad7-bfc6-44bf3d36785a","latitude":"40.85011","longitude":"-73.91075","name":"Citi Bike - Jerome Ave & W 177 St","capacity":"29","operator":"Citi Bike"}}]}
{"type":"FeatureCollection","features":[{"type":"Feature","geometry":{"type":"Point","coordinates":[-73.89433,40.70925]},"properties":{"address":"15e1568b-f502-47a2-9d3d-b5aaa1edc239","latitude":"40.70925","longitude":"-73.89433","name":"Citi Bike - Palmetto St & Traffic Ave","capacity":"21","operator":"Citi Bike"}}]}
{"type":"FeatureCollection","features":[{"type":"Feature","geometry":{"type":"Point","coordinates":[-74.02309,40.64638]},"properties":{"address":"160e21da-6dd2-47ff-8385-e13c8cdce4fa","latitude":"40.64638","longitude":"-74.02309","name":"Citi Bike - 57 St & 1 Ave","capacity":"27","operator":"Citi Bike"}}]}
{"type":"FeatureCollection","features":[{"type":"Feature","geometry":{"type":"Point","coordinates":[-73.95528,40.81824]},"properties":{"address":"16280b32-7e5b-4a18-930b-212eac10faaa","latitude":"40.81824","longitude":"-73.95528","name":"Citi Bike - Old Broadway & W 133 St","capacity":"20","operator":"Citi Bike"}}]}
{"type":"FeatureCollection","features":[{"type":"Feature","geometry":{"type":"Point","coordinates":[-73.97691,40.68702]},"properties":{"address":"162d5859-b735-4ff7-9613-01b21f22c1cd","latitude":"40.68702","longitude":"-73.97691","name":"Citi Bike - Lafayette Ave & Ft Greene Pl","capacity":"36","operator":"Citi Bike"}}]}
{"type":"FeatureCollection","features":[{"type":"Feature","geometry":{"type":"Point","coordinates":[-73.90409,40.70407]},"properties":{"address":"16836c76-c412-4ec3-bac8-3c6a5a3d9745","latitude":"40.70407","longitude":"-73.90409","name":"Citi Bike - Madison St & Woodward Ave","capacity":"20","operator":"Citi Bike"}}]}
{"type":"FeatureCollection","features":[{"type":"Feature","geometry":{"type":"Point","coordinates":[-73.93791,40.80293]},"properties":{"address":"16a4effc-282e-4053-b47b-31f734d50c08","latitude":"40.80293","longitude":"-73.93791","name":"Citi Bike - E 123 St & Lexington Ave","capacity":"27","operator":"Citi Bike"}}]}
{"type":"FeatureCollection","features":[{"type":"Feature","geometry":{"type":"Point","coordinates":[-73.92436,40.74354]},"properties":{"address":"16c54bf4-194b-4f26-9c49-a42901b4748d","latitude":"40.74354","longitude":"-73.92436","name":"Citi Bike - 40 St & Queens Blvd","capacity":"25","operator":"Citi Bike"}}]}
{"type":"FeatureCollection","features":[{"type":"Feature","geometry":{"type":"Point","coordinates":[-73.89991,40.74897]},"properties":{"address":"16cbe771-8fca-4437-b9d2-374e00da6c3a","latitude":"40.74897","longitude":"-73.89991","name":"Citi Bike - 37 Ave & 63 St","capacity":"23","operator":"Citi Bike"}}]}
{"type":"FeatureCollection","features":[{"type":"Feature","geometry":{"type":"Point","coordinates":[-73.90242,40.86494]},"properties":{"address":"16e17ca1-b2dc-47d0-8c8b-199cb4736fe7","latitude":"40.86494","longitude":"-73.90242","name":"Citi Bike - Aqueduct Ave & W 190 St","capacity":"20","operator":"Citi Bike"}}]}
{"type":"FeatureCollection","features":[{"type":"Feature","geometry":{"type":"Point","coordinates":[-73.9503,40.66969]},"properties":{"address":"174bf571-e597-463d-84bc-611c4a13d85e","latitude":"40.66969","longitude":"-73.9503","name":"Citi Bike - Eastern Pkwy & Nostrand Ave","capacity":"27","operator":"Citi Bike"}}]}
{"type":"FeatureCollection","features":[{"type":"Feature","geometry":{"type":"Point","coordinates":[-73.9507,40.72586]},"properties":{"address":"1786375069262703476","latitude":"40.72586","longitude":"-73.9507","name":"Citi Bike - Norman Ave & Leonard St","capacity":"31","operator":"Citi Bike"}}]}
{"type":"FeatureCollection","features":[{"type":"Feature","geometry":{"type":"Point","coordinates":[-73.95701,40.72279]},"properties":{"address":"1786375597504305174","latitude":"40.72279","longitude":"-73.95701","name":"Citi Bike - Wythe Ave & N 13 St","capacity":"43","operator":"Citi Bike"}}]}
{"type":"FeatureCollection","features":[{"type":"Feature","geometry":{"type":"Point","coordinates":[-73.95486,40.73811]},"properties":{"address":"1786686999403592506","latitude":"40.73811","longitude":"-73.95486","name":"Citi Bike - Ash St & Manhattan Ave","capacity":"31","operator":"Citi Bike"}}]}
{"type":"FeatureCollection","features":[{"type":"Feature","geometry":{"type":"Point","coordinates":[-73.95908,40.72979]},"properties":{"address":"1786687245202023014","latitude":"40.72979","longitude":"-73.95908","name":"Citi Bike - Greenpoint Ave & West St","capacity":"35","operator":"Citi Bike"}}]}
{"type":"FeatureCollection","features":[{"type":"Feature","geometry":{"type":"Point","coordinates":[-73.95493,40.73522]},"properties":{"address":"1786696251091417274","latitude":"40.73522","longitude":"-73.95493","name":"Citi Bike - Eagle St & Manhattan Ave","capacity":"35","operator":"Citi Bike"}}]}
{"type":"FeatureCollection","features":[{"type":"Feature","geometry":{"type":"Point","coordinates":[-73.94182,40.7212]},"properties":{"address":"1786696384892428996","latitude":"40.7212","longitude":"-73.94182","name":"Citi Bike - Monitor St & Meeker Ave","capacity":"21","operator":"Citi Bike"}}]}
{"type":"FeatureCollection","features":[{"type":"Feature","geometry":{"type":"Point","coordinates":[-73.94872,40.70832]},"properties":{"address":"1786696564295760054","latitude":"40.70832","longitude":"-73.94872","name":"Citi Bike - Scholes St & Lorimer St","capacity":"27","operator":"Citi Bike"}}]}
{"type":"FeatureCollection","features":[{"type":"Feature","geometry":{"type":"Point","coordinates":[-73.96057,40.71262]},"properties":{"address":"1786696780996714874","latitude":"40.71262","longitude":"-73.96057","name":"Citi Bike - Driggs Ave & S 2 St","capacity":"30","operator":"Citi Bike"}}]}
{"type":"FeatureCollection","features":[{"type":"Feature","geometry":{"type":"Point","coordinates":[-73.9615,40.71839]},"properties":{"address":"1786697003367719132","latitude":"40.71839","longitude":"-73.9615","name":"Citi Bike - N 5 St & Wythe Ave","capacity":"39","operator":"Citi Bike"}}]}
{"type":"FeatureCollection","features":[{"type":"Feature","geometry":{"type":"Point","coordinates":[-73.95707,40.72027]},"properties":{"address":"1786697166576476490","latitude":"40.72027","longitude":"-73.95707","name":"Citi Bike - N 10 St & Berry St","capacity":"47","operator":"Citi Bike"}}]}
{"type":"FeatureCollection","features":[{"type":"Feature","geometry":{"type":"Point","coordinates":[-73.96388,40.71987]},"properties":{"address":"1786697528321024934","latitude":"40.71987","longitude":"-73.96388","name":"Citi Bike - N 5 St & Northside Piers","capacity":"45","operator":"Citi Bike"}}]}
{"type":"FeatureCollection","features":[{"type":"Feature","geometry":{"type":"Point","coordinates":[-73.96593,40.71644]},"properties":{"address":"1786697771181570266","latitude":"40.71644","longitude":"-73.96593","name":"Citi Bike - Kent Ave & Grand St","capacity":"45","operator":"Citi Bike"}}]}
{"type":"FeatureCollection","features":[{"type":"Feature","geometry":{"type":"Point","coordinates":[-73.94599,40.71354]},"properties":{"address":"1786697932047949952","latitude":"40.71354","longitude":"-73.94599","name":"Citi Bike - Manhattan Ave & Devoe St","capacity":"24","operator":"Citi Bike"}}]}
{"type":"FeatureCollection","features":[{"type":"Feature","geometry":{"type":"Point","coordinates":[-73.96654,40.71472]},"properties":{"address":"1786698158713921798","latitude":"40.71472","longitude":"-73.96654","name":"Citi Bike - S 2 St & Kent Ave","capacity":"47","operator":"Citi Bike"}}]}
{"type":"FeatureCollection","features":[{"type":"Feature","geometry":{"type":"Point","coordinates":[-73.95971,40.71069]},"properties":{"address":"1786698321265653818","latitude":"40.71069","longitude":"-73.95971","name":"Citi Bike - S 4 St & Roebling St","capacity":"41","operator":"Citi Bike"}}]}
{"type":"FeatureCollection","features":[{"type":"Feature","geometry":{"type":"Point","coordinates":[-73.96833,40.71089]},"properties":{"address":"1786698815186893280","latitude":"40.71089","longitude":"-73.96833","name":"Citi Bike - Broadway & Kent Ave","capacity":"35","operator":"Citi Bike"}}]}
{"type":"FeatureCollection","features":[{"type":"Feature","geometry":{"type":"Point","coordinates":[-73.9564,40.71695]},"properties":{"address":"1786698974100683436","latitude":"40.71695","longitude":"-73.9564","name":"Citi Bike - N 7 St & Driggs Ave","capacity":"53","operator":"Citi Bike"}}]}
{"type":"FeatureCollection","features":[{"type":"Feature","geometry":{"type":"Point","coordinates":[-73.94383,40.73225]},"properties":{"address":"1786699974232881542","latitude":"40.73225","longitude":"-73.94383","name":"Citi Bike - Greenpoint Ave & Monitor St","capacity":"20","operator":"Citi Bike"}}]}
{"type":"FeatureCollection","features":[{"type":"Feature","geometry":{"type":"Point","coordinates":[-73.94395,40.7277]},"properties":{"address":"1786700154621508184","latitude":"40.7277","longitude":"-73.94395","name":"Citi Bike - N Henry St & Norman Ave","capacity":"29","operator":"Citi Bike"}}]}
{"type":"FeatureCollection","features":[{"type":"Feature","geometry":{"type":"Point","coordinates":[-73.93467,40.67972]},"properties":{"address":"1789e458-c466-4d77-aba6-365f5c3823ed","latitude":"40.67972","longitude":"-73.93467","name":"Citi Bike - Lewis Ave & Fulton St","capacity":"20","operator":"Citi Bike"}}]}
{"type":"FeatureCollection","features":[{"type":"Feature","geometry":{"type":"Point","coordinates":[-74.01764,40.64126]},"properties":{"address":"178bad16-1b02-4264-94c0-a8fd0faa60fe","latitude":"40.64126","longitude":"-74.01764","name":"Citi Bike - 59 St & 4 Ave","capacity":"35","operator":"Citi Bike"}}]}
{"type":"FeatureCollection","features":[{"type":"Feature","geometry":{"type":"Point","coordinates":[-73.95901,40.72054]},"properties":{"address":"1791188268875152272","latitude":"40.72054","longitude":"-73.95901","name":"Citi Bike - N 9 St & Wythe Ave","capacity":"49","operator":"Citi Bike"}}]}
{"type":"FeatureCollection","features":[{"type":"Feature","geometry":{"type":"Point","coordinates":[-73.97722,40.76187]},"properties":{"address":"1791472201147965920","latitude":"40.76187","longitude":"-73.97722","name":"Citi Bike - W 54 St & 6 Ave","capacity":"63","operator":"Citi Bike"}}]}
{"type":"FeatureCollection","features":[{"type":"Feature","geometry":{"type":"Point","coordinates":[-73.89398,40.7123]},"properties":{"address":"1792225684155730482","latitude":"40.7123","longitude":"-73.89398","name":"Citi Bike - 65 Ln & Metropolitan Ave","capacity":"24","operator":"Citi Bike"}}]}
{"type":"FeatureCollection","features":[{"type":"Feature","geometry":{"type":"Point","coordinates":[-74.01655,40.70999]},"properties":{"address":"1794096824496960148","latitude":"40.70999","longitude":"-74.01655","name":"Citi Bike - South End Ave & Albany St","capacity":"45","operator":"Citi Bike"}}]}
{"type":"FeatureCollection","features":[{"type":"Feature","geometry":{"type":"Point","coordinates":[-73.99064,40.74524]},"properties":{"address":"1794096976946852066","latitude":"40.74524","longitude":"-73.99064","name":"Citi Bike - W 27 St & 6 Ave","capacity":"66","operator":"Citi Bike"}}]}
{"type":"FeatureCollection","features":[{"type":"Feature","geometry":{"type":"Point","coordinates":[-73.90321,40.72656]},"properties":{"address":"1794852638057746848","latitude":"40.72656","longitude":"-73.90321","name":"Citi Bike - 63 St & Borden Ave","capacity":"21","operator":"Citi Bike"}}]}
{"type":"FeatureCollection","features":[{"type":"Feature","geometry":{"type":"Point","coordinates":[-73.88766,40.82319]},"properties":{"address":"1795146692060860976","latitude":"40.82319","longitude":"-73.88766","name":"Citi Bike - Longfellow Ave & Aldus St","capacity":"24","operator":"Citi Bike"}}]}
{"type":"FeatureCollection","features":[{"type":"Feature","geometry":{"type":"Point","coordinates":[-73.96773,40.64972]},"properties":{"address":"1796642668661690940","latitude":"40.64972","longitude":"-73.96773","name":"Citi Bike - Caton Ave & Argyle Rd","capacity":"21","operator":"Citi Bike"}}]}
{"type":"FeatureCollection","features":[{"type":"Feature","geometry":{"type":"Point","coordinates":[-73.90303,40.71113]},"properties":{"address":"1797078913880883846","latitude":"40.71113","longitude":"-73.90303","name":"Citi Bike - 60 Pl & Bleecker St","capacity":"19","operator":"Citi Bike"}}]}
{"type":"FeatureCollection","features":[{"type":"Feature","geometry":{"type":"Point","coordinates":[-74.01048,40.67489]},"properties":{"address":"1799624430022654108","latitude":"40.67489","longitude":"-74.01048","name":"Citi Bike - Dwight St & Dikeman St","capacity":"21","operator":"Citi Bike"}}]}
{"type":"FeatureCollection","features":[{"type":"Feature","geometry":{"type":"Point","coordinates":[-73.9554,40.66919]},"properties":{"address":"17aeb1e3-fd18-4cf9-9473-17dfa5b0a312","latitude":"40.66919","longitude":"-73.9554","name":"Citi Bike - Union St & Bedford Ave","capacity":"24","operator":"Citi Bike"}}]}
{"type":"FeatureCollection","features":[{"type":"Feature","geometry":{"type":"Point","coordinates":[-73.97135,40.69979]},"properties":{"address":"17ba4945-b202-4667-965f-211d80622646","latitude":"40.69979","longitude":"-73.97135","name":"Citi Bike - Dock 72 Way & Market St","capacity":"22","operator":"Citi Bike"}}]}
{"type":"FeatureCollection","features":[{"type":"Feature","geometry":{"type":"Point","coordinates":[-73.91763,40.83427]},"properties":{"address":"17c45d34-0d8d-46ba-9078-e9a2a7c5867c","latitude":"40.83427","longitude":"-73.91763","name":"Citi Bike - Grand Concourse & E 167 St","capacity":"30","operator":"Citi Bike"}}]}
{"type":"FeatureCollection","features":[{"type":"Feature","geometry":{"type":"Point","coordinates":[-73.99732,40.74652]},"properties":{"address":"1804892772559499512","latitude":"40.74652","longitude":"-73.99732","name":"Citi Bike - W 25 St & 8 Ave","capacity":"33","operator":"Citi Bike"}}]}
{"type":"FeatureCollection","features":[{"type":"Feature","geometry":{"type":"Point","coordinates":[-73.92751,40.82092]},"properties":{"address":"1804894168423871442","latitude":"40.82092","longitude":"-73.92751","name":"Citi Bike - Walton Ave & E 151 St","capacity":"29","operator":"Citi Bike"}}]}
{"type":"FeatureCollection","features":[{"type":"Feature","geometry":{"type":"Point","coordinates":[-73.93679,40.72533]},"properties":{"address":"1808184356986544410","latitude":"40.72533","longitude":"-73.93679","name":"Citi Bike - Van Dam St & Meeker Ave","capacity":"31","operator":"Citi Bike"}}]}
{"type":"FeatureCollection","features":[{"type":"Feature","geometry":{"type":"Point","coordinates":[-73.98106,40.64204]},"properties":{"address":"180b83a0-329c-4069-87be-df862cb1baed","latitude":"40.64204","longitude":"-73.98106","name":"Citi Bike - Church Ave & Story St","capacity":"23","operator":"Citi Bike"}}]}
{"type":"FeatureCollection","features":[{"type":"Feature","geometry":{"type":"Point","coordinates":[-73.95482,40.78585]},"properties":{"address":"1813395029173762108","latitude":"40.78585","longitude":"-73.95482","name":"Citi Bike - E 94 St & Madison Ave","capacity":"43","operator":"Citi Bike"}}]}
{"type":"FeatureCollection","features":[{"type":"Feature","geometry":{"type":"Point","coordinates":[-73.95863,40.72694]},"properties":{"address":"1814548067447122618","latitude":"40.72694","longitude":"-73.95863","name":"Citi Bike - Calyer St & West St","capacity":"35","operator":"Citi Bike"}}]}
{"type":"FeatureCollection","features":[{"type":"Feature","geometry":{"type":"Point","coordinates":[-73.96218,40.65486]},"properties":{"address":"1814900353536621062","latitude":"40.65486","longitude":"-73.96218","name":"Citi Bike - Parkside Ave & Ocean Ave","capacity":"31","operator":"Citi Bike"}}]}
{"type":"FeatureCollection","features":[{"type":"Feature","geometry":{"type":"Point","coordinates":[-73.94995,40.65271]},"properties":{"address":"1814900632709495794","latitude":"40.65271","longitude":"-73.94995","name":"Citi Bike - Linden Blvd & Nostrand Ave","capacity":"23","operator":"Citi Bike"}}]}
{"type":"FeatureCollection","features":[{"type":"Feature","geometry":{"type":"Point","coordinates":[-73.94713,40.65459]},"properties":{"address":"1814900752968579218","latitude":"40.65459","longitude":"-73.94713","name":"Citi Bike - New York Ave & Lenox Rd","capacity":"24","operator":"Citi Bike"}}]}
{"type":"FeatureCollection","features":[{"type":"Feature","geometry":{"type":"Point","coordinates":[-73.94319,40.65578]},"properties":{"address":"1814900898997467540","latitude":"40.65578","longitude":"-73.94319","name":"Citi Bike - Clarkson Ave & E 37 St","capacity":"22","operator":"Citi Bike"}}]}
{"type":"FeatureCollection","features":[{"type":"Feature","geometry":{"type":"Point","coordinates":[-73.93765,40.65496]},"properties":{"address":"1814901062206225038","latitude":"40.65496","longitude":"-73.93765","name":"Citi Bike - Lenox Rd & E 43 St","capacity":"21","operator":"Citi Bike"}}]}
{"type":"FeatureCollection","features":[{"type":"Feature","geometry":{"type":"Point","coordinates":[-73.96322,40.64468]},"properties":{"address":"1814906692908349788","latitude":"40.64468","longitude":"-73.96322","name":"Citi Bike - E 17 St & Beverley Rd","capacity":"23","operator":"Citi Bike"}}]}
{"type":"FeatureCollection","features":[{"type":"Feature","geometry":{"type":"Point","coordinates":[-73.95931,40.64742]},"properties":{"address":"1814906873296976512","latitude":"40.64742","longitude":"-73.95931","name":"Citi Bike - Albemarle Rd & E 21 St","capacity":"21","operator":"Citi Bike"}}]}
{"type":"FeatureCollection","features":[{"type":"Feature","geometry":{"type":"Point","coordinates":[-73.95819,40.64499]},"properties":{"address":"1814907062275537820","latitude":"40.64499","longitude":"-73.95819","name":"Citi Bike - Beverley Rd & Flatbush Ave","capacity":"30","operator":"Citi Bike"}}]}
{"type":"FeatureCollection","features":[{"type":"Feature","geometry":{"type":"Point","coordinates":[-73.96603,40.64035]},"properties":{"address":"1814907277023901890","latitude":"40.64035","longitude":"-73.96603","name":"Citi Bike - Cortelyou Rd & Argyle Rd","capacity":"25","operator":"Citi Bike"}}]}
{"type":"FeatureCollection","features":[{"type":"Feature","geometry":{"type":"Point","coordinates":[-73.96364,40.64174]},"properties":{"address":"1814907423052790164","latitude":"40.64174","longitude":"-73.96364","name":"Citi Bike - E 16 St & Cortelyou Rd","capacity":"26","operator":"Citi Bike"}}]}
{"type":"FeatureCollection","features":[{"type":"Feature","geometry":{"type":"Point","coordinates":[-73.96099,40.6427]},"properties":{"address":"1814907590556515014","latitude":"40.6427","longitude":"-73.96099","name":"Citi Bike - Cortelyou Rd & E 19 St","capacity":"23","operator":"Citi Bike"}}]}
{"type":"FeatureCollection","features":[{"type":"Feature","geometry":{"type":"Point","coordinates":[-73.94069,40.65594]},"properties":{"address":"1815967051912860522","latitude":"40.65594","longitude":"-73.94069","name":"Citi Bike - Clarkson Ave & E 40 St","capacity":"30","operator":"Citi Bike"}}]}
{"type":"FeatureCollection","features":[{"type":"Feature","geometry":{"type":"Point","coordinates":[-73.96,40.65008]},"properties":{"address":"1815967159287043052","latitude":"40.65008","longitude":"-73.96","name":"Citi Bike - E 21 St & Church Ave","capacity":"25","operator":"Citi Bike"}}]}
{"type":"FeatureCollection","features":[{"type":"Feature","geometry":{"type":"Point","coordinates":[-73.96636,40.64673]},"properties":{"address":"1815967313905864892","latitude":"40.64673","longitude":"-73.96636","name":"Citi Bike - Rugby Rd & Albemarle Rd","capacity":"19","operator":"Citi Bike"}}]}
{"type":"FeatureCollection","features":[{"type":"Feature","geometry":{"type":"Point","coordinates":[-73.94985,40.65074]},"properties":{"address":"1815967442754883940","latitude":"40.65074","longitude":"-73.94985","name":"Citi Bike - Church Ave & Nostrand Ave","capacity":"30","operator":"Citi Bike"}}]}
{"type":"FeatureCollection","features":[{"type":"Feature","geometry":{"type":"Point","coordinates":[-73.93135,40.65183]},"properties":{"address":"1815967674683118258","latitude":"40.65183","longitude":"-73.93135","name":"Citi Bike - E 49 St & Church Ave","capacity":"25","operator":"Citi Bike"}}]}
{"type":"FeatureCollection","features":[{"type":"Feature","geometry":{"type":"Point","coordinates":[-73.94367,40.64916]},"properties":{"address":"1815968026870435892","latitude":"40.64916","longitude":"-73.94367","name":"Citi Bike - Brooklyn Ave & Snyder Ave","capacity":"22","operator":"Citi Bike"}}]}
{"type":"FeatureCollection","features":[{"type":"Feature","geometry":{"type":"Point","coordinates":[-73.94932,40.64684]},"properties":{"address":"1815968147129520346","latitude":"40.64684","longitude":"-73.94932","name":"Citi Bike - Tilden Ave & Nostrand Ave","capacity":"22","operator":"Citi Bike"}}]}
{"type":"FeatureCollection","features":[{"type":"Feature","geometry":{"type":"Point","coordinates":[-73.94331,40.64576]},"properties":{"address":"1815968237323833702","latitude":"40.64576","longitude":"-73.94331","name":"Citi Bike - Brooklyn Ave & Beverley Rd","capacity":"21","operator":"Citi Bike"}}]}
{"type":"FeatureCollection","features":[{"type":"Feature","geometry":{"type":"Point","coordinates":[-73.93181,40.648]},"properties":{"address":"1815968345907104578","latitude":"40.648","longitude":"-73.93181","name":"Citi Bike - E 48 St & Tilden Ave","capacity":"28","operator":"Citi Bike"}}]}
{"type":"FeatureCollection","features":[{"type":"Feature","geometry":{"type":"Point","coordinates":[-73.9327,40.64537]},"properties":{"address":"1815968422007427668","latitude":"40.64537","longitude":"-73.9327","name":"Citi Bike - Schenectady Ave & Cortelyou Rd","capacity":"22","operator":"Citi Bike"}}]}
{"type":"FeatureCollection","features":[{"type":"Feature","geometry":{"type":"Point","coordinates":[-73.95618,40.65237]},"properties":{"address":"1817431953833509324","latitude":"40.65237","longitude":"-73.95618","name":"Citi Bike - Caton Ave & Bedford Ave","capacity":"22","operator":"Citi Bike"}}]}
{"type":"FeatureCollection","features":[{"type":"Feature","geometry":{"type":"Point","coordinates":[-73.93644,40.6533]},"properties":{"address":"1817432104157364846","latitude":"40.6533","longitude":"-73.93644","name":"Citi Bike - Troy Ave & Linden Blvd","capacity":"23","operator":"Citi Bike"}}]}
{"type":"FeatureCollection","features":[{"type":"Feature","geometry":{"type":"Point","coordinates":[-73.96591,40.64436]},"properties":{"address":"1817432233006383832","latitude":"40.64436","longitude":"-73.96591","name":"Citi Bike - Rugby Rd & Beverley Rd","capacity":"25","operator":"Citi Bike"}}]}
{"type":"FeatureCollection","features":[{"type":"Feature","geometry":{"type":"Point","coordinates":[-73.9556,40.64795]},"properties":{"address":"1817432346178415570","latitude":"40.64795","longitude":"-73.9556","name":"Citi Bike - Bedford Ave & Albemarle Rd","capacity":"21","operator":"Citi Bike"}}]}
{"type":"FeatureCollection","features":[{"type":"Feature","geometry":{"type":"Point","coordinates":[-73.95219,40.64871]},"properties":{"address":"1817432434869846072","latitude":"40.64871","longitude":"-73.95219","name":"Citi Bike - Rogers Ave & Snyder Ave","capacity":"23","operator":"Citi Bike"}}]}
{"type":"FeatureCollection","features":[{"type":"Feature","geometry":{"type":"Point","coordinates":[-73.94577,40.65117]},"properties":{"address":"1817432606668538118","latitude":"40.65117","longitude":"-73.94577","name":"Citi Bike - E 34 St & Church Ave","capacity":"25","operator":"Citi Bike"}}]}
{"type":"FeatureCollection","features":[{"type":"Feature","geometry":{"type":"Point","coordinates":[-73.93818,40.65127]},"properties":{"address":"1817432709747753390","latitude":"40.65127","longitude":"-73.93818","name":"Citi Bike - Church Ave & E 42 St","capacity":"25","operator":"Citi Bike"}}]}
{"type":"FeatureCollection","features":[{"type":"Feature","geometry":{"type":"Point","coordinates":[-73.96805,40.63966]},"properties":{"address":"1817432787057164808","latitude":"40.63966","longitude":"-73.96805","name":"Citi Bike - Cortelyou Rd & Stratford Rd","capacity":"21","operator":"Citi Bike"}}]}
{"type":"FeatureCollection","features":[{"type":"Feature","geometry":{"type":"Point","coordinates":[-73.93852,40.64482]},"properties":{"address":"1817432954560889524","latitude":"40.64482","longitude":"-73.93852","name":"Citi Bike - Cortelyou Rd & Albany Ave","capacity":"21","operator":"Citi Bike"}}]}
{"type":"FeatureCollection","features":[{"type":"Feature","geometry":{"type":"Point","coordinates":[-73.93067,40.64622]},"properties":{"address":"1817433126359581672","latitude":"40.64622","longitude":"-73.93067","name":"Citi Bike - Beverley Rd & E 49 St","capacity":"22","operator":"Citi Bike"}}]}
{"type":"FeatureCollection","features":[{"type":"Feature","geometry":{"type":"Point","coordinates":[-73.95273,40.65379]},"properties":{"address":"1817627670084542818","latitude":"40.65379","longitude":"-73.95273","name":"Citi Bike - Rogers Ave & Lenox Rd","capacity":"23","operator":"Citi Bike"}}]}
{"type":"FeatureCollection","features":[{"type":"Feature","geometry":{"type":"Point","coordinates":[-73.96638,40.6532]},"properties":{"address":"1817803079955479336","latitude":"40.6532","longitude":"-73.96638","name":"Citi Bike - Parkside Ave & Parade Pl","capacity":"22","operator":"Citi Bike"}}]}
{"type":"FeatureCollection","features":[{"type":"Feature","geometry":{"type":"Point","coordinates":[-73.91278,40.77419]},"properties":{"address":"1817822909864556798","latitude":"40.77419","longitude":"-73.91278","name":"Citi Bike - 23 Ave & 31 St","capacity":"27","operator":"Citi Bike"}}]}
{"type":"FeatureCollection","features":[{"type":"Feature","geometry":{"type":"Point","coordinates":[-73.96085,40.64873]},"properties":{"address":"1819720453019329398","latitude":"40.64873","longitude":"-73.96085","name":"Citi Bike - Ocean Ave & Tennis Ct","capacity":"23","operator":"Citi Bike"}}]}
{"type":"FeatureCollection","features":[{"type":"Feature","geometry":{"type":"Point","coordinates":[-73.94598,40.65303]},"properties":{"address":"1820420022433309054","latitude":"40.65303","longitude":"-73.94598","name":"Citi Bike - E 34 St & Linden Blvd","capacity":"24","operator":"Citi Bike"}}]}
{"type":"FeatureCollection","features":[{"type":"Feature","geometry":{"type":"Point","coordinates":[-73.95399,40.64661]},"properties":{"address":"1820420129807491554","latitude":"40.64661","longitude":"-73.95399","name":"Citi Bike - Tilden Ave & Lott St","capacity":"19","operator":"Citi Bike"}}]}
{"type":"FeatureCollection","features":[{"type":"Feature","geometry":{"type":"Point","coordinates":[-73.95487,40.64492]},"properties":{"address":"1820420224296772166","latitude":"40.64492","longitude":"-73.95487","name":"Citi Bike - Bedford Ave & Beverley Rd","capacity":"24","operator":"Citi Bike"}}]}
{"type":"FeatureCollection","features":[{"type":"Feature","geometry":{"type":"Point","coordinates":[-73.96951,40.64235]},"properties":{"address":"1822663031356509142","latitude":"40.64235","longitude":"-73.96951","name":"Citi Bike - Matthews Ct & Coney Island Ave","capacity":"21","operator":"Citi Bike"}}]}
{"type":"FeatureCollection","features":[{"type":"Feature","geometry":{"type":"Point","coordinates":[-73.94879,40.64509]},"properties":{"address":"1822663143025657920","latitude":"40.64509","longitude":"-73.94879","name":"Citi Bike - Beverley Rd & Nostrand Ave","capacity":"25","operator":"Citi Bike"}}]}
{"type":"FeatureCollection","features":[{"type":"Feature","geometry":{"type":"Point","coordinates":[-73.93647,40.65632]},"properties":{"address":"1823008749757202820","latitude":"40.65632","longitude":"-73.93647","name":"Citi Bike - Clarkson Ave & Troy Ave","capacity":"23","operator":"Citi Bike"}}]}
{"type":"FeatureCollection","features":[{"type":"Feature","geometry":{"type":"Point","coordinates":[-73.94352,40.64725]},"properties":{"address":"1823008917260927616","latitude":"40.64725","longitude":"-73.94352","name":"Citi Bike - Brooklyn Ave & Tilden Ave","capacity":"24","operator":"Citi Bike"}}]}
{"type":"FeatureCollection","features":[{"type":"Feature","geometry":{"type":"Point","coordinates":[-73.96316,40.64958]},"properties":{"address":"1826348248869574940","latitude":"40.64958","longitude":"-73.96316","name":"Citi Bike - E 18 St & Church Ave","capacity":"31","operator":"Citi Bike"}}]}
{"type":"FeatureCollection","features":[{"type":"Feature","geometry":{"type":"Point","coordinates":[-73.89595,40.75676]},"properties":{"address":"1826348745879909352","latitude":"40.75676","longitude":"-73.89595","name":"Citi Bike - 71 St & 32 Ave","capacity":"19","operator":"Citi Bike"}}]}
{"type":"FeatureCollection","features":[{"type":"Feature","geometry":{"type":"Point","coordinates":[-73.90028,40.83959]},"properties":{"address":"18267c09-1916-48d8-951c-caf88c89edd1","latitude":"40.83959","longitude":"-73.90028","name":"Citi Bike - 3 Ave & E 172 St","capacity":"19","operator":"Citi Bike"}}]}
{"type":"FeatureCollection","features":[{"type":"Feature","geometry":{"type":"Point","coordinates":[-74.00504,40.73947]},"properties":{"address":"1827839088308194240","latitude":"40.73947","longitude":"-74.00504","name":"Citi Bike - Gansevoort St & Hudson St","capacity":"120","operator":"Citi Bike"}}]}
{"type":"FeatureCollection","features":[{"type":"Feature","geometry":{"type":"Point","coordinates":[-73.95411,40.64949]},"properties":{"address":"1828964993433043090","latitude":"40.64949","longitude":"-73.95411","name":"Citi Bike - Lott St & Erasmus St","capacity":"19","operator":"Citi Bike"}}]}
{"type":"FeatureCollection","features":[{"type":"Feature","geometry":{"type":"Point","coordinates":[-73.94637,40.64867]},"properties":{"address":"1828965172312150882","latitude":"40.64867","longitude":"-73.94637","name":"Citi Bike - New York Ave & Snyder Ave","capacity":"22","operator":"Citi Bike"}}]}
{"type":"FeatureCollection","features":[{"type":"Feature","geometry":{"type":"Point","coordinates":[-73.97073,40.64521]},"properties":{"address":"1828965347681089818","latitude":"40.64521","longitude":"-73.97073","name":"Citi Bike - Turner Pl & Coney Island Ave","capacity":"20","operator":"Citi Bike"}}]}
{"type":"FeatureCollection","features":[{"type":"Feature","geometry":{"type":"Point","coordinates":[-73.94486,40.64454]},"properties":{"address":"1828965671716082498","latitude":"40.64454","longitude":"-73.94486","name":"Citi Bike - Cortelyou Rd & E 34 St","capacity":"19","operator":"Citi Bike"}}]}
{"type":"FeatureCollection","features":[{"type":"Feature","geometry":{"type":"Point","coordinates":[-73.89451,40.7488]},"properties":{"address":"1828965887815635862","latitude":"40.7488","longitude":"-73.89451","name":"Citi Bike - 71 St & 37 Ave","capacity":"23","operator":"Citi Bike"}}]}
{"type":"FeatureCollection","features":[{"type":"Feature","geometry":{"type":"Point","coordinates":[-73.89459,40.75474]},"properties":{"address":"1828966104320053340","latitude":"40.75474","longitude":"-73.89459","name":"Citi Bike - 72 St & Northern Blvd","capacity":"19","operator":"Citi Bike"}}]}
{"type":"FeatureCollection","features":[{"type":"Feature","geometry":{"type":"Point","coordinates":[-73.89741,40.76013]},"properties":{"address":"1828966227118051662","latitude":"40.76013","longitude":"-73.89741","name":"Citi Bike - 30 Ave & 70 St","capacity":"19","operator":"Citi Bike"}}]}
{"type":"FeatureCollection","features":[{"type":"Feature","geometry":{"type":"Point","coordinates":[-73.8924,40.75705]},"properties":{"address":"1828966363527611286","latitude":"40.75705","longitude":"-73.8924","name":"Citi Bike - 32 Ave & 75 St","capacity":"19","operator":"Citi Bike"}}]}
{"type":"FeatureCollection","features":[{"type":"Feature","geometry":{"type":"Point","coordinates":[-73.89179,40.75473]},"properties":{"address":"1828966490867110420","latitude":"40.75473","longitude":"-73.89179","name":"Citi Bike - 75 St & Northern Blvd","capacity":"18","operator":"Citi Bike"}}]}
{"type":"FeatureCollection","features":[{"type":"Feature","geometry":{"type":"Point","coordinates":[-73.8908,40.75887]},"properties":{"address":"1828966626550010820","latitude":"40.75887","longitude":"-73.8908","name":"Citi Bike - 77 St & 31 Ave","capacity":"20","operator":"Citi Bike"}}]}
{"type":"FeatureCollection","features":[{"type":"Feature","geometry":{"type":"Point","coordinates":[-73.89501,40.76206]},"properties":{"address":"1828966747840428256","latitude":"40.76206","longitude":"-73.89501","name":"Citi Bike - 73 St & 25 Ave","capacity":"19","operator":"Citi Bike"}}]}
{"type":"FeatureCollection","features":[{"type":"Feature","geometry":{"type":"Point","coordinates":[-73.89158,40.76429]},"properties":{"address":"1828966882896859944","latitude":"40.76429","longitude":"-73.89158","name":"Citi Bike - 77 St & 24 Ave","capacity":"19","operator":"Citi Bike"}}]}
{"type":"FeatureCollection","features":[{"type":"Feature","geometry":{"type":"Point","coordinates":[-73.88803,40.76464]},"properties":{"address":"1828967027013302842","latitude":"40.76464","longitude":"-73.88803","name":"Citi Bike - 81 St & 24 Ave","capacity":"19","operator":"Citi Bike"}}]}
{"type":"FeatureCollection","features":[{"type":"Feature","geometry":{"type":"Point","coordinates":[-73.88672,40.76646]},"properties":{"address":"1828967208126648828","latitude":"40.76646","longitude":"-73.88672","name":"Citi Bike - 23 Ave & 83 St","capacity":"19","operator":"Citi Bike"}}]}
{"type":"FeatureCollection","features":[{"type":"Feature","geometry":{"type":"Point","coordinates":[-73.88837,40.76109]},"properties":{"address":"1828967346753327602","latitude":"40.76109","longitude":"-73.88837","name":"Citi Bike - 30 Ave & 80 St","capacity":"19","operator":"Citi Bike"}}]}
{"type":"FeatureCollection","features":[{"type":"Feature","geometry":{"type":"Point","coordinates":[-73.88632,40.76109]},"properties":{"address":"1828967499459705054","latitude":"40.76109","longitude":"-73.88632","name":"Citi Bike - 82 St & 30 Ave","capacity":"19","operator":"Citi Bike"}}]}
{"type":"FeatureCollection","features":[{"type":"Feature","geometry":{"type":"Point","coordinates":[-73.88681,40.75762]},"properties":{"address":"1828967607558607844","latitude":"40.75762","longitude":"-73.88681","name":"Citi Bike - 32 Ave & 81 St","capacity":"19","operator":"Citi Bike"}}]}
{"type":"FeatureCollection","features":[{"type":"Feature","geometry":{"type":"Point","coordinates":[-73.88603,40.75376]},"properties":{"address":"1828967717120678322","latitude":"40.75376","longitude":"-73.88603","name":"Citi Bike - 81 St & 34 Ave","capacity":"25","operator":"Citi Bike"}}]}
{"type":"FeatureCollection","features":[{"type":"Feature","geometry":{"type":"Point","coordinates":[-73.88205,40.74798]},"properties":{"address":"1828967830172187422","latitude":"40.74798","longitude":"-73.88205","name":"Citi Bike - 84 St & Roosevelt Ave","capacity":"30","operator":"Citi Bike"}}]}
{"type":"FeatureCollection","features":[{"type":"Feature","geometry":{"type":"Point","coordinates":[-73.87935,40.74827]},"properties":{"address":"1828967979464708718","latitude":"40.74827","longitude":"-73.87935","name":"Citi Bike - 87 St & Roosevelt Ave","capacity":"23","operator":"Citi Bike"}}]}
{"type":"FeatureCollection","features":[{"type":"Feature","geometry":{"type":"Point","coordinates":[-73.88062,40.75]},"properties":{"address":"1828968082192898522","latitude":"40.75","longitude":"-73.88062","name":"Citi Bike - 86 St & 37 Ave","capacity":"22","operator":"Citi Bike"}}]}
{"type":"FeatureCollection","features":[{"type":"Feature","geometry":{"type":"Point","coordinates":[-73.88094,40.7523]},"properties":{"address":"1828968199249922252","latitude":"40.7523","longitude":"-73.88094","name":"Citi Bike - 86 St & 35 Ave","capacity":"21","operator":"Citi Bike"}}]}
{"type":"FeatureCollection","features":[{"type":"Feature","geometry":{"type":"Point","coordinates":[-73.88266,40.75601]},"properties":{"address":"1828968327357059242","latitude":"40.75601","longitude":"-73.88266","name":"Citi Bike - 85 St & Northern Blvd","capacity":"22","operator":"Citi Bike"}}]}
{"type":"FeatureCollection","features":[{"type":"Feature","geometry":{"type":"Point","coordinates":[-73.88401,40.75792]},"properties":{"address":"1828968462257099768","latitude":"40.75792","longitude":"-73.88401","name":"Citi Bike - 32 Ave & 84 St","capacity":"19","operator":"Citi Bike"}}]}
{"type":"FeatureCollection","features":[{"type":"Feature","geometry":{"type":"Point","coordinates":[-73.88219,40.75959]},"properties":{"address":"1828968611856235508","latitude":"40.75959","longitude":"-73.88219","name":"Citi Bike - 31 Ave & 86 St","capacity":"19","operator":"Citi Bike"}}]}
{"type":"FeatureCollection","features":[{"type":"Feature","geometry":{"type":"Point","coordinates":[-73.88167,40.76157]},"properties":{"address":"1828968691399885056","latitude":"40.76157","longitude":"-73.88167","name":"Citi Bike - 87 St & 30 Ave","capacity":"21","operator":"Citi Bike"}}]}
{"type":"FeatureCollection","features":[{"type":"Feature","geometry":{"type":"Point","coordinates":[-73.88404,40.76329]},"properties":{"address":"1828968794479100296","latitude":"40.76329","longitude":"-73.88404","name":"Citi Bike - 25 Ave & 85 St","capacity":"19","operator":"Citi Bike"}}]}
{"type":"FeatureCollection","features":[{"type":"Feature","geometry":{"type":"Point","coordinates":[-73.88255,40.7654]},"properties":{"address":"1828968883163894358","latitude":"40.7654","longitude":"-73.88255","name":"Citi Bike - 24 Ave & 87 St","capacity":"20","operator":"Citi Bike"}}]}
{"type":"FeatureCollection","features":[{"type":"Feature","geometry":{"type":"Point","coordinates":[-73.87774,40.76022]},"properties":{"address":"1828968994833044184","latitude":"40.76022","longitude":"-73.87774","name":"Citi Bike - 91 St & 31 Ave","capacity":"21","operator":"Citi Bike"}}]}
{"type":"FeatureCollection","features":[{"type":"Feature","geometry":{"type":"Point","coordinates":[-73.87824,40.75837]},"properties":{"address":"1828969112306680612","latitude":"40.75837","longitude":"-73.87824","name":"Citi Bike - 90 St & 32 Ave","capacity":"20","operator":"Citi Bike"}}]}
{"type":"FeatureCollection","features":[{"type":"Feature","geometry":{"type":"Point","coordinates":[-73.87721,40.76313]},"properties":{"address":"1828969323789472168","latitude":"40.76313","longitude":"-73.87721","name":"Citi Bike - 92 St & Astoria Blvd","capacity":"18","operator":"Citi Bike"}}]}
{"type":"FeatureCollection","features":[{"type":"Feature","geometry":{"type":"Point","coordinates":[-73.86845,40.75749]},"properties":{"address":"1828969417249358046","latitude":"40.75749","longitude":"-73.86845","name":"Citi Bike - 100 St & Northern Blvd","capacity":"22","operator":"Citi Bike"}}]}
{"type":"FeatureCollection","features":[{"type":"Feature","geometry":{"type":"Point","coordinates":[-73.86242,40.75137]},"properties":{"address":"1828969515711812276","latitude":"40.75137","longitude":"-73.86242","name":"Citi Bike - 104 St & 38 Ave","capacity":"22","operator":"Citi Bike"}}]}
{"type":"FeatureCollection","features":[{"type":"Feature","geometry":{"type":"Point","coordinates":[-73.85916,40.75166]},"properties":{"address":"1828969634783171152","latitude":"40.75166","longitude":"-73.85916","name":"Citi Bike - 108 St & 39 Ave","capacity":"21","operator":"Citi Bike"}}]}
{"type":"FeatureCollection","features":[{"type":"Feature","geometry":{"type":"Point","coordinates":[-73.862,40.75398]},"properties":{"address":"1828969726487003714","latitude":"40.75398","longitude":"-73.862","name":"Citi Bike - 37 Ave & 106 St","capacity":"19","operator":"Citi Bike"}}]}
{"type":"FeatureCollection","features":[{"type":"Feature","geometry":{"type":"Point","coordinates":[-73.86455,40.75756]},"properties":{"address":"1828969851041055492","latitude":"40.75756","longitude":"-73.86455","name":"Citi Bike - 104 St & Northern Blvd","capacity":"23","operator":"Citi Bike"}}]}
{"type":"FeatureCollection","features":[{"type":"Feature","geometry":{"type":"Point","coordinates":[-73.96171,40.65327]},"properties":{"address":"1831178352265562334","latitude":"40.65327","longitude":"-73.96171","name":"Citi Bike - Ocean Ave & Crooke Ave","capacity":"27","operator":"Citi Bike"}}]}
{"type":"FeatureCollection","features":[{"type":"Feature","geometry":{"type":"Point","coordinates":[-74.02561,40.64251]},"properties":{"address":"18326827-dcae-47e0-8518-c4bb9e21eef6","latitude":"40.64251","longitude":"-74.02561","name":"Citi Bike - Keegan Rd & 2 Ave","capacity":"35","operator":"Citi Bike"}}]}
{"type":"FeatureCollection","features":[{"type":"Feature","geometry":{"type":"Point","coordinates":[-73.97558,40.78625]},"properties":{"address":"1833865926273309136","latitude":"40.78625","longitude":"-73.97558","name":"Citi Bike - W 84 St & Amsterdam Ave","capacity":"63","operator":"Citi Bike"}}]}
{"type":"FeatureCollection","features":[{"type":"Feature","geometry":{"type":"Point","coordinates":[-73.89538,40.75257]},"properties":{"address":"1834145064843958330","latitude":"40.75257","longitude":"-73.89538","name":"Citi Bike - 34 Ave & 71 St","capacity":"22","operator":"Citi Bike"}}]}
{"type":"FeatureCollection","features":[{"type":"Feature","geometry":{"type":"Point","coordinates":[-73.89224,40.753]},"properties":{"address":"1834145204469569922","latitude":"40.753","longitude":"-73.89224","name":"Citi Bike - 34 Ave & 74 St","capacity":"25","operator":"Citi Bike"}}]}
{"type":"FeatureCollection","features":[{"type":"Feature","geometry":{"type":"Point","coordinates":[-73.89172,40.74908]},"properties":{"address":"1834145330979754058","latitude":"40.74908","longitude":"-73.89172","name":"Citi Bike - 74 St & 37 Ave","capacity":"30","operator":"Citi Bike"}}]}
{"type":"FeatureCollection","features":[{"type":"Feature","geometry":{"type":"Point","coordinates":[-73.88121,40.76425]},"properties":{"address":"1834145468418707676","latitude":"40.76425","longitude":"-73.88121","name":"Citi Bike - 88 St & Astoria Blvd","capacity":"20","operator":"Citi Bike"}}]}
{"type":"FeatureCollection","features":[{"type":"Feature","geometry":{"type":"Point","coordinates":[-73.87509,40.75086]},"properties":{"address":"1834145589124844432","latitude":"40.75086","longitude":"-73.87509","name":"Citi Bike - 92 St & 37 Ave","capacity":"19","operator":"Citi Bike"}}]}
{"type":"FeatureCollection","features":[{"type":"Feature","geometry":{"type":"Point","coordinates":[-73.94823,40.66511]},"properties":{"address":"1834145868297717964","latitude":"40.66511","longitude":"-73.94823","name":"Citi Bike - New York Ave & Montgomery St","capacity":"20","operator":"Citi Bike"}}]}
{"type":"FeatureCollection","features":[{"type":"Feature","geometry":{"type":"Point","coordinates":[-73.87265,40.75302]},"properties":{"address":"1835244925191295588","latitude":"40.75302","longitude":"-73.87265","name":"Citi Bike - 95 St & 35 Ave","capacity":"23","operator":"Citi Bike"}}]}
{"type":"FeatureCollection","features":[{"type":"Feature","geometry":{"type":"Point","coordinates":[-73.87283,40.75502]},"properties":{"address":"1835246381185208614","latitude":"40.75502","longitude":"-73.87283","name":"Citi Bike - 34 Ave & Junction Blvd","capacity":"23","operator":"Citi Bike"}}]}
{"type":"FeatureCollection","features":[{"type":"Feature","geometry":{"type":"Point","coordinates":[-73.87505,40.75641]},"properties":{"address":"1835246516012366338","latitude":"40.75641","longitude":"-73.87505","name":"Citi Bike - 93 St & Northern Blvd","capacity":"22","operator":"Citi Bike"}}]}
{"type":"FeatureCollection","features":[{"type":"Feature","geometry":{"type":"Point","coordinates":[-73.8722,40.75711]},"properties":{"address":"1835246658344669972","latitude":"40.75711","longitude":"-73.8722","name":"Citi Bike - 96 St & Northern Blvd","capacity":"20","operator":"Citi Bike"}}]}
{"type":"FeatureCollection","features":[{"type":"Feature","geometry":{"type":"Point","coordinates":[-73.8731,40.76086]},"properties":{"address":"1835246815877178358","latitude":"40.76086","longitude":"-73.8731","name":"Citi Bike - 30 Ave & 96 St","capacity":"21","operator":"Citi Bike"}}]}
{"type":"FeatureCollection","features":[{"type":"Feature","geometry":{"type":"Point","coordinates":[-73.87788,40.76589]},"properties":{"address":"1835246937517543544","latitude":"40.76589","longitude":"-73.87788","name":"Citi Bike - 24 Ave & 92 St","capacity":"20","operator":"Citi Bike"}}]}
{"type":"FeatureCollection","features":[{"type":"Feature","geometry":{"type":"Point","coordinates":[-73.87587,40.77024]},"properties":{"address":"1835247196073118026","latitude":"40.77024","longitude":"-73.87587","name":"Citi Bike - Ditmars Blvd & 94 St","capacity":"20","operator":"Citi Bike"}}]}
{"type":"FeatureCollection","features":[{"type":"Feature","geometry":{"type":"Point","coordinates":[-73.8756,40.7662]},"properties":{"address":"1835247352748090208","latitude":"40.7662","longitude":"-73.8756","name":"Citi Bike - Jackson Mill Rd & 24 Ave","capacity":"24","operator":"Citi Bike"}}]}
{"type":"FeatureCollection","features":[{"type":"Feature","geometry":{"type":"Point","coordinates":[-73.8737,40.76447]},"properties":{"address":"1835247469495105628","latitude":"40.76447","longitude":"-73.8737","name":"Citi Bike - 25 Ave & 96 St","capacity":"21","operator":"Citi Bike"}}]}
{"type":"FeatureCollection","features":[{"type":"Feature","geometry":{"type":"Point","coordinates":[-73.86977,40.75898]},"properties":{"address":"1835247598942507168","latitude":"40.75898","longitude":"-73.86977","name":"Citi Bike - 99 St & 32 Ave","capacity":"20","operator":"Citi Bike"}}]}
{"type":"FeatureCollection","features":[{"type":"Feature","geometry":{"type":"Point","coordinates":[-73.86887,40.75405]},"properties":{"address":"1835247745828931742","latitude":"40.75405","longitude":"-73.86887","name":"Citi Bike - 99 St & 35 Ave","capacity":"23","operator":"Citi Bike"}}]}
{"type":"FeatureCollection","features":[{"type":"Feature","geometry":{"type":"Point","coordinates":[-73.86717,40.75243]},"properties":{"address":"1835249197527877718","latitude":"40.75243","longitude":"-73.86717","name":"Citi Bike - 100 St & 37 Ave","capacity":"20","operator":"Citi Bike"}}]}
{"type":"FeatureCollection","features":[{"type":"Feature","geometry":{"type":"Point","coordinates":[-73.86724,40.75056]},"properties":{"address":"1835249317786962140","latitude":"40.75056","longitude":"-73.86724","name":"Citi Bike - 99 St & 38 Ave","capacity":"30","operator":"Citi Bike"}}]}
{"type":"FeatureCollection","features":[{"type":"Feature","geometry":{"type":"Point","coordinates":[-73.86622,40.75586]},"properties":{"address":"1835249448692130546","latitude":"40.75586","longitude":"-73.86622","name":"Citi Bike - 102 St & 34 Ave","capacity":"22","operator":"Citi Bike"}}]}
{"type":"FeatureCollection","features":[{"type":"Feature","geometry":{"type":"Point","coordinates":[-73.86665,40.76134]},"properties":{"address":"1835249854657874848","latitude":"40.76134","longitude":"-73.86665","name":"Citi Bike - 31 Ave & 103 St","capacity":"20","operator":"Citi Bike"}}]}
{"type":"FeatureCollection","features":[{"type":"Feature","geometry":{"type":"Point","coordinates":[-73.87013,40.76574]},"properties":{"address":"1835249964093653018","latitude":"40.76574","longitude":"-73.87013","name":"Citi Bike - 100 St & Humphreys St","capacity":"23","operator":"Citi Bike"}}]}
{"type":"FeatureCollection","features":[{"type":"Feature","geometry":{"type":"Point","coordinates":[-73.87332,40.7683]},"properties":{"address":"1835250080052323168","latitude":"40.7683","longitude":"-73.87332","name":"Citi Bike - 97 St & 23 Ave","capacity":"19","operator":"Citi Bike"}}]}
{"type":"FeatureCollection","features":[{"type":"Feature","geometry":{"type":"Point","coordinates":[-73.86832,40.76894]},"properties":{"address":"1835250199411134468","latitude":"40.76894","longitude":"-73.86832","name":"Citi Bike - Ditmars Blvd & 102 St","capacity":"25","operator":"Citi Bike"}}]}
{"type":"FeatureCollection","features":[{"type":"Feature","geometry":{"type":"Point","coordinates":[-73.86033,40.76136]},"properties":{"address":"1835250318514342456","latitude":"40.76136","longitude":"-73.86033","name":"Citi Bike - Ditmars Blvd & 31 Dr","capacity":"28","operator":"Citi Bike"}}]}
{"type":"FeatureCollection","features":[{"type":"Feature","geometry":{"type":"Point","coordinates":[-73.94286,40.6622]},"properties":{"address":"1835250442210857240","latitude":"40.6622","longitude":"-73.94286","name":"Citi Bike - Kingston Ave & E New York Ave","capacity":"21","operator":"Citi Bike"}}]}
{"type":"FeatureCollection","features":[{"type":"Feature","geometry":{"type":"Point","coordinates":[-73.94301,40.79327]},"properties":{"address":"1835618878584115330","latitude":"40.79327","longitude":"-73.94301","name":"Citi Bike - 3 Ave & E 109 St","capacity":"25","operator":"Citi Bike"}}]}
{"type":"FeatureCollection","features":[{"type":"Feature","geometry":{"type":"Point","coordinates":[-73.88713,40.74936]},"properties":{"address":"1836581441921155232","latitude":"40.74936","longitude":"-73.88713","name":"Citi Bike - 79 St & 37 Ave","capacity":"21","operator":"Citi Bike"}}]}
{"type":"FeatureCollection","features":[{"type":"Feature","geometry":{"type":"Point","coordinates":[-73.87537,40.75291]},"properties":{"address":"1836581534415880440","latitude":"40.75291","longitude":"-73.87537","name":"Citi Bike - 92 St & 35 Ave","capacity":"26","operator":"Citi Bike"}}]}
{"type":"FeatureCollection","features":[{"type":"Feature","geometry":{"type":"Point","coordinates":[-73.8762,40.74865]},"properties":{"address":"1836581628905160976","latitude":"40.74865","longitude":"-73.8762","name":"Citi Bike - Elmhurst Ave & Roosevelt Ave","capacity":"22","operator":"Citi Bike"}}]}
{"type":"FeatureCollection","features":[{"type":"Feature","geometry":{"type":"Point","coordinates":[-73.87368,40.74889]},"properties":{"address":"1836581714456697424","latitude":"40.74889","longitude":"-73.87368","name":"Citi Bike - 93 St & Roosevelt Ave","capacity":"24","operator":"Citi Bike"}}]}
{"type":"FeatureCollection","features":[{"type":"Feature","geometry":{"type":"Point","coordinates":[-73.89107,40.75097]},"properties":{"address":"1836581807397045112","latitude":"40.75097","longitude":"-73.89107","name":"Citi Bike - 75 St & 35 Ave","capacity":"25","operator":"Citi Bike"}}]}
{"type":"FeatureCollection","features":[{"type":"Feature","geometry":{"type":"Point","coordinates":[-73.87041,40.76197]},"properties":{"address":"1838070626762830158","latitude":"40.76197","longitude":"-73.87041","name":"Citi Bike - 99 St & Astoria Blvd","capacity":"23","operator":"Citi Bike"}}]}
{"type":"FeatureCollection","features":[{"type":"Feature","geometry":{"type":"Point","coordinates":[-73.86225,40.75997]},"properties":{"address":"1838070703178521596","latitude":"40.75997","longitude":"-73.86225","name":"Citi Bike - 107 St & 32 Ave","capacity":"19","operator":"Citi Bike"}}]}
{"type":"FeatureCollection","features":[{"type":"Feature","geometry":{"type":"Point","coordinates":[-73.86087,40.75615]},"properties":{"address":"1838070776953752336","latitude":"40.75615","longitude":"-73.86087","name":"Citi Bike - 34 Ave & 108 St","capacity":"23","operator":"Citi Bike"}}]}
{"type":"FeatureCollection","features":[{"type":"Feature","geometry":{"type":"Point","coordinates":[-73.85763,40.75788]},"properties":{"address":"1838070843306263244","latitude":"40.75788","longitude":"-73.85763","name":"Citi Bike - 112 St & Northern Blvd","capacity":"20","operator":"Citi Bike"}}]}
{"type":"FeatureCollection","features":[{"type":"Feature","geometry":{"type":"Point","coordinates":[-73.85612,40.75692]},"properties":{"address":"1838070940162509196","latitude":"40.75692","longitude":"-73.85612","name":"Citi Bike - 34 Ave & 113 St","capacity":"23","operator":"Citi Bike"}}]}
{"type":"FeatureCollection","features":[{"type":"Feature","geometry":{"type":"Point","coordinates":[-73.85489,40.75476]},"properties":{"address":"1838071008881986168","latitude":"40.75476","longitude":"-73.85489","name":"Citi Bike - 37 Ave & 113 St","capacity":"30","operator":"Citi Bike"}}]}
{"type":"FeatureCollection","features":[{"type":"Feature","geometry":{"type":"Point","coordinates":[-73.85301,40.7532]},"properties":{"address":"1838071090619298218","latitude":"40.7532","longitude":"-73.85301","name":"Citi Bike - 114 St & 39 Ave","capacity":"30","operator":"Citi Bike"}}]}
{"type":"FeatureCollection","features":[{"type":"Feature","geometry":{"type":"Point","coordinates":[-73.88569,40.75179]},"properties":{"address":"1838617691511229014","latitude":"40.75179","longitude":"-73.88569","name":"Citi Bike - 81 St & 35 Ave","capacity":"25","operator":"Citi Bike"}}]}
{"type":"FeatureCollection","features":[{"type":"Feature","geometry":{"type":"Point","coordinates":[-73.89024,40.75726]},"properties":{"address":"1838618090943186984","latitude":"40.75726","longitude":"-73.89024","name":"Citi Bike - 32 Ave & 77 St","capacity":"23","operator":"Citi Bike"}}]}
{"type":"FeatureCollection","features":[{"type":"Feature","geometry":{"type":"Point","coordinates":[-73.87171,40.76454]},"properties":{"address":"1838685618105506490","latitude":"40.76454","longitude":"-73.87171","name":"Citi Bike - 98 St & 25 Ave","capacity":"20","operator":"Citi Bike"}}]}
{"type":"FeatureCollection","features":[{"type":"Feature","geometry":{"type":"Point","coordinates":[-73.93981,40.65772]},"properties":{"address":"1838999304404452058","latitude":"40.65772","longitude":"-73.93981","name":"Citi Bike - Winthrop St & Albany Ave","capacity":"21","operator":"Citi Bike"}}]}
{"type":"FeatureCollection","features":[{"type":"Feature","geometry":{"type":"Point","coordinates":[-73.93377,40.65818]},"properties":{"address":"1838999521825487230","latitude":"40.65818","longitude":"-73.93377","name":"Citi Bike - Winthrop St & Schenectady Ave","capacity":"21","operator":"Citi Bike"}}]}
{"type":"FeatureCollection","features":[{"type":"Feature","geometry":{"type":"Point","coordinates":[-74.0274,40.74083]},"properties":{"address":"1839334257267825432","latitude":"40.74083","longitude":"-74.0274","name":"Citi Bike - 4 St & River St","capacity":"14","operator":"Citi Bike"}}]}
{"type":"FeatureCollection","features":[{"type":"Feature","geometry":{"type":"Point","coordinates":[-73.87536,40.75874]},"properties":{"address":"1840504138040045682","latitude":"40.75874","longitude":"-73.87536","name":"Citi Bike - Jackson Mill Rd & 93 St","capacity":"21","operator":"Citi Bike"}}]}
{"type":"FeatureCollection","features":[{"type":"Feature","geometry":{"type":"Point","coordinates":[-73.86483,40.7652]},"properties":{"address":"1840540852548303628","latitude":"40.7652","longitude":"-73.86483","name":"Citi Bike - Butler St & 27 Ave","capacity":"18","operator":"Citi Bike"}}]}
{"type":"FeatureCollection","features":[{"type":"Feature","geometry":{"type":"Point","coordinates":[-73.85743,40.75397]},"properties":{"address":"1840540966407039246","latitude":"40.75397","longitude":"-73.85743","name":"Citi Bike - 111 St & 37 Ave","capacity":"23","operator":"Citi Bike"}}]}
{"type":"FeatureCollection","features":[{"type":"Feature","geometry":{"type":"Point","coordinates":[-73.89371,40.74743]},"properties":{"address":"1841240663447542046","latitude":"40.74743","longitude":"-73.89371","name":"Citi Bike - 72 St & Broadway","capacity":"20","operator":"Citi Bike"}}]}
{"type":"FeatureCollection","features":[{"type":"Feature","geometry":{"type":"Point","coordinates":[-73.86691,40.76399]},"properties":{"address":"1841926579628419438","latitude":"40.76399","longitude":"-73.86691","name":"Citi Bike - Gillmore St & 27 Ave","capacity":"18","operator":"Citi Bike"}}]}
{"type":"FeatureCollection","features":[{"type":"Feature","geometry":{"type":"Point","coordinates":[-73.88674,40.74719]},"properties":{"address":"1843486189591985058","latitude":"40.74719","longitude":"-73.88674","name":"Citi Bike - 79 St & Roosevelt Ave","capacity":"23","operator":"Citi Bike"}}]}
{"type":"FeatureCollection","features":[{"type":"Feature","geometry":{"type":"Point","coordinates":[-73.88538,40.74586]},"properties":{"address":"1843486301383097150","latitude":"40.74586","longitude":"-73.88538","name":"Citi Bike - 41 Ave & 80 St","capacity":"25","operator":"Citi Bike"}}]}
{"type":"FeatureCollection","features":[{"type":"Feature","geometry":{"type":"Point","coordinates":[-73.8832,40.7464]},"properties":{"address":"1843486390605672640","latitude":"40.7464","longitude":"-73.8832","name":"Citi Bike - Ithaca St & Baxter Ave","capacity":"25","operator":"Citi Bike"}}]}
{"type":"FeatureCollection","features":[{"type":"Feature","geometry":{"type":"Point","coordinates":[-73.88837,40.74108]},"properties":{"address":"1843486464469891376","latitude":"40.74108","longitude":"-73.88837","name":"Citi Bike - 76 St & 45 Ave","capacity":"19","operator":"Citi Bike"}}]}
{"type":"FeatureCollection","features":[{"type":"Feature","geometry":{"type":"Point","coordinates":[-73.88023,40.74102]},"properties":{"address":"1843486597735840252","latitude":"40.74102","longitude":"-73.88023","name":"Citi Bike - South Railroad Ave & Broadway","capacity":"25","operator":"Citi Bike"}}]}
{"type":"FeatureCollection","features":[{"type":"Feature","geometry":{"type":"Point","coordinates":[-73.8774,40.73679]},"properties":{"address":"1843486667668726558","latitude":"40.73679","longitude":"-73.8774","name":"Citi Bike - Queens Blvd & Broadway","capacity":"25","operator":"Citi Bike"}}]}
{"type":"FeatureCollection","features":[{"type":"Feature","geometry":{"type":"Point","coordinates":[-73.87318,40.73677]},"properties":{"address":"1843486757863039016","latitude":"40.73677","longitude":"-73.87318","name":"Citi Bike - 55 Ave & 90 St","capacity":"21","operator":"Citi Bike"}}]}
{"type":"FeatureCollection","features":[{"type":"Feature","geometry":{"type":"Point","coordinates":[-74.02886,40.73723]},"properties":{"address":"1844599666569400604","latitude":"40.73723","longitude":"-74.02886","name":"Citi Bike - River St & 1 St","capacity":"24","operator":"Citi Bike"}}]}
{"type":"FeatureCollection","features":[{"type":"Feature","geometry":{"type":"Point","coordinates":[-73.94194,40.65107]},"properties":{"address":"1845676816555735590","latitude":"40.65107","longitude":"-73.94194","name":"Citi Bike - E 38 St & Church Ave","capacity":"24","operator":"Citi Bike"}}]}
{"type":"FeatureCollection","features":[{"type":"Feature","geometry":{"type":"Point","coordinates":[-73.93298,40.65]},"properties":{"address":"1845676917264180046","latitude":"40.65","longitude":"-73.93298","name":"Citi Bike - Snyder Ave & Schenectady Ave","capacity":"19","operator":"Citi Bike"}}]}
{"type":"FeatureCollection","features":[{"type":"Feature","geometry":{"type":"Point","coordinates":[-73.96131,40.64485]},"properties":{"address":"1845677022981917240","latitude":"40.64485","longitude":"-73.96131","name":"Citi Bike - E 19 St & Beverley Rd","capacity":"19","operator":"Citi Bike"}}]}
{"type":"FeatureCollection","features":[{"type":"Feature","geometry":{"type":"Point","coordinates":[-73.88821,40.74557]},"properties":{"address":"1846085439406916338","latitude":"40.74557","longitude":"-73.88821","name":"Citi Bike - 41 Ave & 77 St","capacity":"24","operator":"Citi Bike"}}]}
{"type":"FeatureCollection","features":[{"type":"Feature","geometry":{"type":"Point","coordinates":[-73.87913,40.73832]},"properties":{"address":"1846085533896197012","latitude":"40.73832","longitude":"-73.87913","name":"Citi Bike - 51 Ave & Van Loon St","capacity":"24","operator":"Citi Bike"}}]}
{"type":"FeatureCollection","features":[{"type":"Feature","geometry":{"type":"Point","coordinates":[-73.87385,40.74463]},"properties":{"address":"1846085626867634660","latitude":"40.74463","longitude":"-73.87385","name":"Citi Bike - Forley St & Lamont Ave","capacity":"21","operator":"Citi Bike"}}]}
{"type":"FeatureCollection","features":[{"type":"Feature","geometry":{"type":"Point","coordinates":[-73.86648,40.74773]},"properties":{"address":"1846085734612252774","latitude":"40.74773","longitude":"-73.86648","name":"Citi Bike - 98 St & 41 Ave","capacity":"22","operator":"Citi Bike"}}]}
{"type":"FeatureCollection","features":[{"type":"Feature","geometry":{"type":"Point","coordinates":[-73.87249,40.74241]},"properties":{"address":"1846085836152179090","latitude":"40.74241","longitude":"-73.87249","name":"Citi Bike - Corona Ave & 92 St","capacity":"21","operator":"Citi Bike"}}]}
{"type":"FeatureCollection","features":[{"type":"Feature","geometry":{"type":"Point","coordinates":[-73.87484,40.74154]},"properties":{"address":"1846085927885781554","latitude":"40.74154","longitude":"-73.87484","name":"Citi Bike - Corona Ave & 90 St","capacity":"22","operator":"Citi Bike"}}]}
{"type":"FeatureCollection","features":[{"type":"Feature","geometry":{"type":"Point","coordinates":[-73.87411,40.73937]},"properties":{"address":"1846086027713733188","latitude":"40.73937","longitude":"-73.87411","name":"Citi Bike - 90 St & 51 Ave","capacity":"19","operator":"Citi Bike"}}]}
{"type":"FeatureCollection","features":[{"type":"Feature","geometry":{"type":"Point","coordinates":[-73.86285,40.74876]},"properties":{"address":"1846086138339179502","latitude":"40.74876","longitude":"-73.86285","name":"Citi Bike - 103 St & 41 Ave","capacity":"23","operator":"Citi Bike"}}]}
{"type":"FeatureCollection","features":[{"type":"Feature","geometry":{"type":"Point","coordinates":[-73.86887,40.73921]},"properties":{"address":"1846086263936934630","latitude":"40.73921","longitude":"-73.86887","name":"Citi Bike - 53 Ave & 94 St","capacity":"20","operator":"Citi Bike"}}]}
{"type":"FeatureCollection","features":[{"type":"Feature","geometry":{"type":"Point","coordinates":[-73.86994,40.7365]},"properties":{"address":"1846086362824884662","latitude":"40.7365","longitude":"-73.86994","name":"Citi Bike - 56 Ave & 92 St","capacity":"25","operator":"Citi Bike"}}]}
{"type":"FeatureCollection","features":[{"type":"Feature","geometry":{"type":"Point","coordinates":[-73.86753,40.73628]},"properties":{"address":"1846086463217404850","latitude":"40.73628","longitude":"-73.86753","name":"Citi Bike - 94 St & 57 Ave","capacity":"25","operator":"Citi Bike"}}]}
{"type":"FeatureCollection","features":[{"type":"Feature","geometry":{"type":"Point","coordinates":[-73.86189,40.7442]},"properties":{"address":"1846086562569586930","latitude":"40.7442","longitude":"-73.86189","name":"Citi Bike - Corona Ave & 102 St","capacity":"21","operator":"Citi Bike"}}]}
{"type":"FeatureCollection","features":[{"type":"Feature","geometry":{"type":"Point","coordinates":[-73.86011,40.73987]},"properties":{"address":"1846086665080867236","latitude":"40.73987","longitude":"-73.86011","name":"Citi Bike - 100 St & Lewis Ave","capacity":"3","operator":"Citi Bike"}}]}
{"type":"FeatureCollection","features":[{"type":"Feature","geometry":{"type":"Point","coordinates":[-73.8596,40.73763]},"properties":{"address":"1846086768160082632","latitude":"40.73763","longitude":"-73.8596","name":"Citi Bike - 99 St & 58 Ave","capacity":"25","operator":"Citi Bike"}}]}
{"type":"FeatureCollection","features":[{"type":"Feature","geometry":{"type":"Point","coordinates":[-73.94558,40.66257]},"properties":{"address":"1846449740982645546","latitude":"40.66257","longitude":"-73.94558","name":"Citi Bike - Brooklyn Ave & Lefferts Ave","capacity":"20","operator":"Citi Bike"}}]}
{"type":"FeatureCollection","features":[{"type":"Feature","geometry":{"type":"Point","coordinates":[-73.87192,40.74619]},"properties":{"address":"1848241332086049696","latitude":"40.74619","longitude":"-73.87192","name":"Citi Bike - Case St & 94 St","capacity":"21","operator":"Citi Bike"}}]}
{"type":"FeatureCollection","features":[{"type":"Feature","geometry":{"type":"Point","coordinates":[-73.87427,40.73482]},"properties":{"address":"1848241425697670086","latitude":"40.73482","longitude":"-73.87427","name":"Citi Bike - Queens Blvd & 56 Ave","capacity":"38","operator":"Citi Bike"}}]}
{"type":"FeatureCollection","features":[{"type":"Feature","geometry":{"type":"Point","coordinates":[-73.8678,40.744]},"properties":{"address":"1848241684520917882","latitude":"40.744","longitude":"-73.8678","name":"Citi Bike - 46 Ave & Junction Blvd","capacity":"19","operator":"Citi Bike"}}]}
{"type":"FeatureCollection","features":[{"type":"Feature","geometry":{"type":"Point","coordinates":[-73.86771,40.74088]},"properties":{"address":"1848241791125254746","latitude":"40.74088","longitude":"-73.86771","name":"Citi Bike - 51 Ave & Junction Blvd","capacity":"19","operator":"Citi Bike"}}]}
{"type":"FeatureCollection","features":[{"type":"Feature","geometry":{"type":"Point","coordinates":[-73.86625,40.73717]},"properties":{"address":"1848241879913802606","latitude":"40.73717","longitude":"-73.86625","name":"Citi Bike - 56 Ave & Junction Blvd","capacity":"22","operator":"Citi Bike"}}]}
{"type":"FeatureCollection","features":[{"type":"Feature","geometry":{"type":"Point","coordinates":[-73.86414,40.73728]},"properties":{"address":"1848241963446241866","latitude":"40.73728","longitude":"-73.86414","name":"Citi Bike - 97 St & 57 Ave","capacity":"20","operator":"Citi Bike"}}]}
{"type":"FeatureCollection","features":[{"type":"Feature","geometry":{"type":"Point","coordinates":[-73.86227,40.74278]},"properties":{"address":"1848242058183072050","latitude":"40.74278","longitude":"-73.86227","name":"Citi Bike - 99 St & 50 Ave","capacity":"21","operator":"Citi Bike"}}]}
{"type":"FeatureCollection","features":[{"type":"Feature","geometry":{"type":"Point","coordinates":[-73.85792,40.74944]},"properties":{"address":"1848242143834868452","latitude":"40.74944","longitude":"-73.85792","name":"Citi Bike - 42 Ave & 108 St","capacity":"20","operator":"Citi Bike"}}]}
{"type":"FeatureCollection","features":[{"type":"Feature","geometry":{"type":"Point","coordinates":[-73.85465,40.74955]},"properties":{"address":"1848242216849312578","latitude":"40.74955","longitude":"-73.85465","name":"Citi Bike - 43 Ave & 111 St","capacity":"19","operator":"Citi Bike"}}]}
{"type":"FeatureCollection","features":[{"type":"Feature","geometry":{"type":"Point","coordinates":[-73.88553,40.73858]},"properties":{"address":"1849008925260421550","latitude":"40.73858","longitude":"-73.88553","name":"Citi Bike - Queens Blvd & Albion Ave","capacity":"21","operator":"Citi Bike"}}]}
{"type":"FeatureCollection","features":[{"type":"Feature","geometry":{"type":"Point","coordinates":[-73.88103,40.73814]},"properties":{"address":"1849009244468810224","latitude":"40.73814","longitude":"-73.88103","name":"Citi Bike - St James Ave & 51 Ave","capacity":"21","operator":"Citi Bike"}}]}
{"type":"FeatureCollection","features":[{"type":"Feature","geometry":{"type":"Point","coordinates":[-73.86518,40.74448]},